Address,Latitude,Longitude
"Ram St, Kharia Mohalla, Sabzi Mandi Old, Delhi, 110007",28.6715267,77.2030447
"398 - 399, Main Market, Old Subzi Mandi, G.T Road, (Near Robin Cinema), New Delhi, Delhi 110007",28.6508826,77.1955405
"M6F3+GV2, Main Bazar, GT Rd, Subzi Mandi, New Delhi, Delhi 110007",28.6712278,77.1990675
"2322, Main Bazar, Subzi Mandi, Delhi-110007",28.6751307,77.2009113
"74, E Park Rd, Model Basti, Karol Bagh, Delhi, 110005",28.6582842,77.2001234
"230, Gali No.7, near Gulabi Bagh, Padam Nagar, Kishan Ganj, New Delhi, Delhi, 110007",28.6629803,77.173848
"1913, Gali Haji Ismail, Pahari Bhojla, Sita Ram Bazar, Old Delhi, New Delhi, Delhi, 110006",28.6455093,77.2294142
"15/5, Old, Chandrawal, Civil Lines, New Delhi, Delhi 110054",28.6879035,77.2166134
"RGPC+QWJ, near Sai Temple, Bharat Nagar, Khasbag, Shahapur, Belagavi, Karnataka 590005",15.8411602,74.5169815
"1560/61, Maruti Galli, opp. Aradhana Clothing store, Raviwar Peth, Belagavi, Karnataka 590002",15.8577004,74.5094261
"VGHG+VGP, Shree Nagar, Belagavi, Karnataka",15.8797125,74.5237532
"1560/61, Maruti Galli, opp. Aradhana Clothing store, Raviwar Peth, Belagavi, Karnataka 590002",15.8577004,74.5094261
"6251, Gali Ishwari Prasad, Chandni Chowk, Chandni Chowk, Delhi, 110006",28.6558483,77.2210094
"D-116, Palam Colony, Raj Nagar II Extension, Palam, New Delhi, Delhi, 110077",28.5823134,77.0785148
"D-116, Palam Colony, Raj Nagar II Extension, Palam, New Delhi, Delhi, 110077",28.5823134,77.0785148
"4QVP+3M6, Mula Gabharu Path, Kahilipara, Guwahati, Assam 781019",26.1426625,91.7840657
"Tower A, Unitech Business Park, Block - F, South City 1, Sector - 41, Gurgaon, Haryana - 122001",28.4579478,77.0680279
"Shop No - B-17 Antriksh Golf View-2, Sector 78, Noida, Uttar Pradesh ",28.5591611,77.3860342
"H. N. 159 C, , Infront Of Amaltaf Banquat Hall, Road No-4, , Ashok Nagar-834002 (Infront Of Amaltaf Banquat Hall)",23.3460914,85.2995394
"C/o Ambay Clinic, Dwarka Sector 23-110077",28.562368,77.046787
"Near, Plot No. 38, Itehara Village, 6 Percent Farmer Plot, Cherry County St, Amrapali Dream Valley, Noida, Uttar Pradesh 201305",28.5874409,77.4218537
"Cribs Hospital, F-2, 40 foot road, Abul fazal enclave ND-25",28.5461247,77.2949183
"alshifa hospital, abul fazal enclave, okhla ND-25",28.5568465,77.2901085
"sharda medical center, abul fazal enclave, okhla",28.5551594,77.2876789
"Viola Hospital, D-57, abul fazal enclave, ND-25",28.55893,77.2917351
"New life multispecialist clinic, block-A,sarita vihar ND-25",28.5363752,77.2919249
"adarsh hospital, A-12, adarsh NagarND-33",24.0792188,73.3709541
"AH ivf center, F-1, 40 foot road, Abul fazal enclave ND-25",28.5431574,77.2979201
"A H IVF Research center, Jamia Nagar, Delhi",28.5431574,77.2979201
"Arogya Ortho & GyNae clinic, E-20, LGF, GK-II, ND-48",45.6127424,-121.1751185
"kalindi Hospital, Pocket-1/89, Jasola vihar, ND-25",28.540108,77.2922602
"samayak hospital, BM-8, shaheed udham singh, shalimar bagh-88",28.7076727,77.1623541
"Dr. usha goel, C 84, main road, Block C, Ganga Vihar, Gokalpuri, Delhi, 110094",28.7063608,77.2807953
"sundar lal memorial hospital, D-254, Dilshad Garden, Near Gududwada, New Delhi, Delhi 110095",28.6787669,77.3138578
"Dr..fatima bushra clinic, 37/1j-extension ramesh park laxmi negar delhi-92",28.6370961,77.2709581
"Dr..punita gupta, 1/4982,60 feet road balbir negar,loNa road,shahDr.a,delhi 110032",28.6693927,77.3098254
"rajdhani hospital, C-96, New Ashok Nagar Rd, Block B, New Ashok Nagar, New Delhi, Uttar Pradesh 110096",28.5950104,77.3040659
"jp memorial hospital, FF 189, Block F, Dilshad Colony, Delhi, Uttar Pradesh 110095",28.684695,77.3273875
"jivan anmol hospital, Patparganj Rd, Pocket 4, Pratap Nagar, Mayur Vihar, Delhi, 110091",28.6059874,77.2928302
"Dr. mamta thakur clinic, G-223, Block G, Old Seemapuri, Delhi, Uttar Pradesh 110095",28.6961018,77.3266493
"rajrani hospital, Plot Na.D-3, Main Market Old Kondli, New Delhi, Delhi 110096",28.61371,77.3207711
"sankhwar hospital, D-134, caNal road, Kondli Extension, Kondli, Delhi, 110096",28.6151084,77.3212178
"Dr..rakhi rawat, Plot Na.D-3, Main Market Old Kondli, New Delhi, Delhi 110096",28.5750798,77.3168898
"suraksha nursing home, Suraksha Nursing Home, E - 22, Dilshad Colony, New Delhi, Delhi 110095",28.6870361,77.3223325
"karuNa hospital, D-62, Pocket E, Dilshad Colony New Simapuri, Dilshad Colony, New Delhi, Delhi 110095",28.6890659,77.3206309
"Dr..manju sharma, b47 gali Na6 joshy colony",27.7756404,75.8511355
"Dr..rukmani dogra clinic, 71-A/1, KrishNa Nagar, Delhi - 110051, Near Rashid Market",28.6476466,77.2788736
"gupta nursing home, 25, Raj Block, Navin Shahdara, West Rohtash Nagar, Delhi, 110032",28.6760844,77.2853053
"gangaram hospital, Sir Ganga Ram Hospital Marg, Old Rajinder Nagar, New Rajinder Nagar, New Delhi, Delhi 110060",28.6385473,77.1881684
"Dr. firdos parveen, rashisd market",45.5519617,-121.1752462
"goel hospital, E-4/8, KrishNa Nagar, near Lajpat Rai Chowk, New Delhi, Delhi 110051",28.6611623,77.2798484
"Cribs Hospital, F-2, 40 foot road, Abul fazal enclave ND-25",28.5461247,77.2949183
"Dr. sonu rani clinic, Gharoli Main Rd, Kondli Extension, Kondli, Delhi, 110096",28.6134768,77.3208
"Iqbal Faziy Hospital, B-43, okhla vihar, Jamia Nagar, ND-25",30.4871281,-56.2569247
"iqbal faizy hospital, B-43, okhla vihar, Jamia Nagar, ND-25",30.4871281,-56.2569247
"Phoenix Hospital, E-60 GK new delhi",28.5499518,77.2416753
"Phoenix Hospital, E-60 GK new delhi",28.5499518,77.2416753
"Phoenix Hospital, E-60 GK new delhi",28.5499518,77.2416753
"haleem medical center, block-C, jamia Nagar okhla-ND-25",28.5484897,77.2978748
"sadique meditech healthcare center, c- block,okhla vihar ND-25",30.4801398,-56.2448992
"MI heart & women healthcare clinic, C-36, pocket-C market sarita vihar",28.5316442,77.2920192
"manisha clinic, C-48, sarita vihar, ND-25",28.5313384,77.2894678
"Mamta clinic, C-141, Sarita vihar ND-25",28.5313937,77.2900069
"Bansal hospital, A-1, new Friends colony ND-25",28.5650464,77.2688631
"Bansal hospital, A-1, new Friends colony ND-25",28.5650464,77.2688631
"rita clinic, C-558, NFC, ND-65",47.6123156,-122.3160885
"The Specialist Clinic, 47, Harsh Vihar Pritampura",28.6962216,77.1344276
"orange klinic, A-8, lok vihar, pritampura, delhi-34",28.4410169,77.0578269
"saransh polyclinic, 2949, sant Nagar, rani bagh, ND-34",28.688768,77.1299666
"bedi clinic, 43/3 east patel Nagar ND-110008",28.6468387,77.1733885
"jeewan nursing home, pusa road-ND-05",28.6435874,77.1854762
"goel clinic, M/179,greater kailash ND-48",28.5334951,77.2424135
"pramod's medicare, E-352, GK-II, ND-45",28.5828997,77.1190752
"pulse medical center, S-77, GK-II, ND-48",28.5343519,77.2429439
"Rashad hospital, new friends colony ND-25",28.5691618,77.2727947
"raiz medical center, okhla vihar jamia Nagar-ND-25",28.5540078,77.2886504
"Rejoice hospital, lajpat Nagar, ND-24",28.5644313,77.2472907
"F.M Hospital, F block ,okhla, ND-25",30.4801398,-56.2448992
"Jeevan Hospital 2, Maharani Bagh",28.5774792,77.2579263
"DKMC, ali extn, sarita vihar",28.520539,77.3051851
"Ahuja hospital, greater kailash ND-48",28.5280912,77.2175752
"pulse medical center, 1992, banda bahadur marg, mukherjee Nagar ND-09",28.7019184,77.2031089
"care medi center, hakikat Nagar",28.6833627,77.2034722
"sadaNa clinic, 3, hakikat Nagar ,Gtb Nagar ND-09",28.6980407,77.2051617
"sanjeevni nursing home, D-13, kamla Nagar, ND-07",28.6815078,77.1980847
"LNJP hospital, darya ganj ND-68",28.6590348,77.2141786
"Dr gupta & maternity hospital, 84, daryaganj ND-06",28.64435,77.2398027
"goel clinic, G-20,sarita vihar ND-25",28.5311608,77.2917276
"Mommy and Me Clinic, F 12 CR Park ",28.5346574,77.2518161
"khanNa nursing home, 217, adarsh Nagar, ND-33",28.7183721,77.166131
"tyagi hospital, 210,adarsh Nagar ND-33",28.7187981,77.1656084
"Aakash Hopsital, 90/43 Malviya Nagar",28.5350398,77.2122484
"rawat clinic, J-203, dakshin puri ND-62",28.5320398,77.243097
"Dr sunderlal memorial hopsital, c-201, khanpur, ND-62",28.506293,77.2291101
"Ahuja hospital, krishNa park,khanpur, ND-62",28.5066033,77.2303523
"Ashok nursing home, F-3/13-16, vijay chowk, krishNa Nagar ND-51",28.6596015,77.2810608
"Mehra medicare, F-15/10, krishNa Nagar ND-51",28.6589984,77.2849975
"Hitesh hospital, pritampura new delhi-51",28.6969249,77.0973648
"Panchwati clinic, pritampura new delhi-51",28.6182277,77.1231811
"gyNae center, pritampura new delhi-51",28.6885512,77.1284104
"veeNa nursing home, A-1/3 rohini delhi-85",28.698799,77.1161887
"manNa clinic & maternity home, 1367, rani bagh, delhi-34",28.68557,77.1291278
"kuber hospital, 12, chander lok,pritampura ND-34",28.6900516,77.1332006
"krishNa hospital, pritampura new delhi-51",28.690262,77.1330903
"All gyNae clinic, pritampura new delhi-51",28.6977712,77.1190151
"origyn fertility and IVF, 4th floor, pritam pura, ND-34",28.6931679,77.1491382
"bhatia hospital, A-25, adarsh Nagar ND-33",27.8112353,75.8464314
"ANand maya multispecialist hospital, A-94, adarsh Nagar ND-33",28.7296369,77.1576871
"bansal global hospital, A block adarsh Nagar ND-33",28.7273111,77.1598166
"Aarohi medicity, new cottage Rd, adarsh Nagar ND-33",28.7224102,77.1695859
"sehgal nursing home, block A, adarsh Nagar, ND-33",28.7144729,77.1700891
"sehgal nursing home, block A, adarsh Nagar, ND-33",28.7144729,77.1700891
"shanti kumud hospital, A-8, adarsh Nagar ND-33",28.7174649,77.1677311
"Ishan hospital, B/8, rohini ND-89",28.7226868,77.1047112
"gupta clinic, BA 48,shalimar bagh ND-88",28.7155014,77.1541117
"shitri rog visesagya, shalimar bagh",28.7095598,77.1673375
"clinic, rajinder Nagar",28.6386975,77.1765936
"Raj clinic , 3167, chuNa mandi, paharganj karol bagh ND-55",28.6435462,77.2085021
"Vohra clinic, 9A/24, dilshad gardan ND-05",28.6391309,77.228117
"sant nirankari charitable hospitals, avtar marg, mukherjee Nagar ND-09",28.7154941,77.2026155
"nulife hospital, 1616, banda bahadur marg, gtb Nagar, ND-09",25.2649573,70.2291275
"hans charitable hospital, baba 2001-2, banda bahadur marg, ND-09",28.7000972,77.2056497
"khaushik clinic, 18/15, kishan Nagar, ND-07",28.7381771,75.2858655
"medi care hospital, FA-39/40, okhla, ND-25",28.5497711,77.2936955
"mother care, kamla Nagar",28.561247,77.250553
"Ayoni cure de jouvence, F-14/69, model town ND-09",30.5592546,-56.2829492
"women's clinic, lajpat Nagar 3, ND-24",28.5673083,77.2313541
"knight clinic, A1,19 safdarjung enclave ND-29",28.5657667,77.1931465
"irene ivf center, B4/42,safdarjung enclave ND-29",28.5655686,77.1927366
"maanmati polyclinc, H Na-10, arjun Nagar, ND-29",30.4892733,-56.3011856
"SadhaNa Medical center, 24/13-14, Patel Nagar ND-08",28.6515214,77.1529115
"PSRI hospital, pocket J, phase-II, sheikh sarai ND-17",28.533387,77.2227505
"IVY health & infertility center, badarpur",28.5000133,77.3082848
"Divine clinic, A-41, sukhfdev vihar, ND_25",28.5617378,77.2701702
"care&cure poly clinc, F-18/2,okhla ND-25",28.5622151,77.284734
"shalini clinic, sarita vihar",28.5301146,77.2883399
"faiz medical center, okhla",28.5563889,77.284215
"asha surgical& medical center, 143, deoli , sangar vihar, ND_62",19.8260403,65.8062902
"sabrawal clinic, 22, netaji subhash marg, daryaganj, ND_02",28.6442237,77.2370829
"makhija clinic, mukherjee Nagar ND-09 ",28.7119171,77.2136723
"joyce ivf center, HG,83, kirti Nagar, ND-15",28.6503627,77.1414731
"rainbow hospital, block A, malviya Nagar, ND-17",28.529339,77.202119
"wellskool, I-102, kirti Nagar, ND-15",28.6469027,77.1359641
"afgc infertilty clinic, moolchand crossing near lajpat Nagar-24",28.5688805,77.2340113
"Jain clinic, pritampura",28.7126809,77.1382399
"sethi hospital, kalma market",45.6127424,-121.1751185
"patel nursing home, laxmi negar,shakarpur",28.6306718,77.2755332
"Dr. gs patel clinic, laxmi negar,shakarpur",28.6258125,77.2780198
"Dr. rukmani aranya, laxmi negar,shakarpur",28.6731021,77.1569955
"somdatt medical centre, laxmi negar,shakarpur",28.6293858,77.2741397
"NarenDr.a prakash hospital, laxmi negar,shakarpur",28.6335999,77.2780778
"sharma nursing home, laxmi negar,shakarpur",28.6322916,77.278001
"sharma nursing home, laxmi negar,shakarpur",28.6322916,77.278001
"makkar hospital, A 1,2, Patparganj Rd, Near Priyadarshini Vihar Metroplex East Mall, Priyadarshini Vihar, Mohan Park, Laxmi Nagar, Delhi, 110092",28.6409618,77.2799778
"lifeline hospital, A-13, Patparganj Rd, Near Sai baba mandir, Priyadarshini Vihar, Mohan Park, Laxmi Nagar, New Delhi, Delhi 110092",28.642039,77.2792764
"muskan clinic, B - 201, Priyadarshini Vihar, Priya Priyadarshini Vihar, Laxmi Nagar, New Delhi, Delhi 110092",28.6421748,77.2764942
"rs grover memorial hospital, B-243, Priyadarshini Vihar, Priya Priyadarshini Vihar, Laxmi Nagar, New Delhi, Delhi 110092",28.6426051,77.2748739
"Dr. R.dogra clinic, laxmi negar",28.6180901,77.2802659
"Dr. sangeeta clinic, rashid market",28.6477984,77.2787777
"rk kundan hospita, patparganj",28.6180931,77.284237
"new life multi specialty hospital, block rz palam new delhi",28.5451598,77.0184433
"new life multi specialty hospital, block rz palam new delhi",28.5451598,77.0184433
"lifeline hospital, nirman vihar",28.642039,77.2792764
"malik radix healthcare, nirman vihar",28.6354616,77.2856256
"jd medical centre, 1/4649/8A, Jagatpuri, Shahdara, Delhi, 110032",28.6874835,77.2970003
"Dr. bela dhiwan, Main Mandoli Rd, Ram Nagar Market, Ram Nagar Extension, Ram Nagar, Shahdara, Delhi, 110032",28.686309,77.2918051
"vaid maternity centre, shahDr.a",28.6848393,77.2895374
"mahalaxmi hospital, 1449p-8 main road 100 ft road durgapuri,shahDr.a",28.6892658,77.2937871
"cm patel hospital, shahDr.a",28.689412,77.2865451
"Aashirwad Hospital, 5-6 KrishNa market  jhilmil colony ",28.6692738,77.3045998
"redcross hospital, New Seemapuri Rd, Pocket E, Dilshad Colony New Simapuri, Dilshad Garden, Delhi, 110095",28.6779422,77.3200427
"mahesh hospital,  D-437, Patparganj Societies Complex, West ViNad Nagar InDr.aprastha Extension, Block D, Mandawali, New Delhi, Delhi 110092",28.6264494,77.2998077
"Dr. vandaNa agarwal, joshy colony,mandawali",28.6269186,77.297371
"roopali medical centre, C-4/77A, Block C, YamuNa Vihar, Shahdara, New Delhi, Delhi 110053",28.7015605,77.2796971
"saini nursing home, b 8 saket new delhi ",28.5260823,77.2045965
"holy clinic, hospital road jangpura bhogal",28.5843872,77.2449225
"aashray mother n child clinic, 37 TO 54, Pocket D, Block A, GTB Enclave, Dilshad Garden, Delhi, 110093",28.6906168,77.3076124
"Dr. bhajan kaur, B-102, Gali Number 10, near Kukreja Hospital, Block B, Shashi Garden, Mayur Vihar, New Delhi, Delhi 110091",28.6091287,77.2966538
"Dr. durgesh suri, a-17 acharya niketan mayurvihar 1 110091",28.6038968,77.2960107
"Women child care, 6092/1 pocket 6 sec d vasant kunj",28.5299673,77.143319
"kiran medical centre, 86A, Pocket A2,, Mayur Vihar Phase 3, Delhi, 110096",28.613256,77.3352414
"redcross hospital, Aradhak Marg, Chikamberpur Village, Chikamberpur, New Delhi, Delhi 110095",28.6779422,77.3200427
"mata roop rani maggo hospital, c-9 om vihar uttam Nagar",28.6210893,77.0481105
"care and cure clinic, G-221, Block G, Old Seemapuri, Delhi, Uttar Pradesh 110095",28.6822515,77.3202503
"sri krishNa mother n child clinic, L-76/A, Pocket L Dilshad Garden Rd, Block F, Dilshad Garden, Delhi, 110095",28.6823232,77.3204315
"shubham medical centre, M.I.G. Flats, 392-A, Pocket J & K, Dilshad Garden, Delhi, Uttar Pradesh 110095",28.6817674,77.3206358
"kiran medical centre, 86A, Pocket A2,, Mayur Vihar Phase 3, Delhi, 110096",28.613256,77.3352414
"aashta medical centre, 9A, A-2 A-3 Rd, near Phase- III, Pocket A 2, Mayur Vihar Phase III, Gharoli, New Delhi, Uttar Pradesh 110096",28.6131751,77.3355181
"Dr. gupta family clinic, 155A, Jhilmil DDA LIG Flats, Satyam Enclave, Delhi 110095",28.6685571,77.3073383
"kukreja hospital, D 36, Block C, Acharya Niketan, Mayur Vihar, New Delhi, Delhi 110091",28.6092434,77.2921949
"kukreja hospital, D 36, Block C, Acharya Niketan, Mayur Vihar, New Delhi, Delhi 110091",28.6092434,77.2921949
"mehta hospital, f 1 108 virat vihar ambedkar road ",28.523375,77.2287041
"triton hospital , cc 30 block c nd",28.5471619,77.2521504
"Dr mohini soni, pkt 6 vasant kunj",28.5257346,77.1487123
"parmeshwari devi hospital, pocket 5 vasant kunj",28.5267225,77.1496491
"hygiea hospital, 210/a rama market munirka",28.5576499,77.1693912
"hygiea hospital, 210/a rama market munirka",28.5576499,77.1693912
"Shubham hospital, dd15 kalkaji new delhi",28.5434715,77.2561134
"Shubham hospital, dd15 kalkaji new delhi",28.5434715,77.2561134
"jivan jyoti hospital, 118A/1 , GTB chowk, near GTB Hospital, Dilshad Garden, New Delhi, Delhi 110095",28.6820542,77.309919
"Dr..roshan lala hospital, L-1, Navin Shahdara, Shahdara, New Delhi, Delhi 110032",28.6761493,77.2818795
"Mridula Gupta, B-9 kaushambi",28.642087,77.3231023
"Alshifa multispecialty hospital, D-305 Abuk Fazal Enclave Okhla New Delhi",28.5568465,77.2901085
"Dr. seema gupta, main road joshy colony",28.8093572,114.0473637
"Dr. sahida, B-33, Street Number 3, New Govindpura, KrishNa Nagar, Delhi, 110051",28.6539147,77.2795544
"Dr. reema digit clinic, Block A, Plot Na, 128, Mandawali Main Rd, Fazalpur, Mandawali, New Delhi, Delhi 110092",28.6277591,77.2906634
"Dr. asma parveen, laxmi negar",45.6127424,-121.1751185
"perfect tyagi hospital, 78 A Opposite IHBAS C-Block Near post office, Dilshad Garden, New Delhi, Delhi 110095",28.6786015,77.3046287
"ESIC hospital, Block D, Jhilmil Colony, Delhi, 110095",28.6692122,77.3058495
"kapoor hospital, F-20, near Chawla Medicos, Dilshad Colony, Delhi, Uttar Pradesh 110095",28.682568,77.3250899
"sai nursing home, D-8 Main Market Opp. State Bank Of patiyala, Old Kondli, Delhi 110096",28.6132804,77.3207686
"redcross hospital, Aradhak Marg, Chikamberpur Village, Chikamberpur, New Delhi, Delhi 110095",28.6779422,77.3200427
"muskan maternity and fertility clinic, F 27, Madhu Vihar, I.P.Extension, Patparganj, Delhi, 110092",28.6375705,77.3005871
"moonga medical centre, block j, J-10, New KrishNa Nagar, Delhi, 110051",28.658436,77.2840727
"bansal clinic, F-73, B-2, Mangal Bazar Rd, Block F, Laxmi Nagar, Delhi, 110092",28.636986,77.2771695
"Narula hospital, Narula Medicare, Patparganj Rd, Block C, Madhuban Enclave, Preet Vihar, New Delhi, Delhi 110092",28.6310086,77.2837643
"malhotra clinic, NarwaNa Rd, Madhu Vihar, I.P.Extension, Patparganj, Delhi, 110092",28.6349525,77.3017082
"lokpriya nursing home, A-133, Vivek Vihar Rd, Vivek Vihar Phase 2, Vivek Vihar II, Mayur Vihar Phase II, Jhilmil Colony, Delhi, 110095",28.6696938,77.303182
"Aakash Hopsital, 90/43 Malviya Nagar",28.5350398,77.2122484
"gangaram hospital, Sir Ganga Ram Hospital Marg, Old Rajinder Nagar, New Rajinder Nagar, New Delhi, Delhi 110060",28.6385473,77.1881684
"Dr..sushma jindal hospital, 488-15, Dilshad Garden, Near Radha Krishan Mandir, Dilshad Garden, New Delhi, Delhi 110092",28.6790387,77.3122506
"Dr..sindujatiwari, 18-A, Pocket H, Dilshad Garden, Delhi, 110095",28.6629442,77.2657908
"shiv ultrasound centre n mother care clinic, Scooter market, A -76, Street Number 8, Rajgarh Colony, near jheel, SataNam Marg, Delhi, 110031",28.6602355,77.2724331
"asija medical centre, laxmi negar",28.6510708,77.2730404
"angle agastya multi specialty hospital, block rz palam new delhi",28.5870745,77.0832078
"Dr..sneha shree, B-110, Main 100 Feet Rd, West Jyoti Nagar, Durgapuri Extension, Shahdara, Delhi, 110032",28.6891441,77.2858676
"srivastav medical centre, Street Number 8, Block C, Bhajanpura, Shahdara, Delhi, 110053",28.7116524,77.2356365
"Dr..deepti h.maithani, I Pocket, Dilshad Garden, Delhi, Uttar Pradesh 110095",28.6788287,77.3194851
"Dr..neelu mahajan, b, Deluxe Apartments, Paryatan Vihar, Vasundhara Enclave, New Delhi, Delhi 110096",28.6004175,77.3123747
"Dr..usha gupta, 155A, Jhilmil DDA LIG Flats, Satyam Enclave, Delhi 110095",28.6675043,77.3029456
"Dr. sapNa verma, Gharoli Main Rd, Kondli Extension, Kondli, Delhi, 110096",28.613454,77.3208171
"Dr. hiNa, metro health care centre, aashok negar",13.0317665,80.2131897
"Dr. vibha bansal, E-411 A, Near Hanuman Mandir, Taksal Rd, New Ashok Nagar, 110096",28.5919758,77.3043015
"Dr..pooNam goel, C-3 63A, police station, opp. Gokalpuri, YamuNa Vihar, Delhi, 110053",28.6746092,77.2625545
"Dr..payal chakraborty,bless healthcare, dilshad garden",28.6130931,77.1666432
"Dr..vandaNa vasistt, vasihst chikitsalya nd maternity centre, C3/68A, Block C, YamuNa Vihar, Gokalpuri, Delhi, 110053",28.7016858,77.2777926
"Dr..pragya garg, maxwell medical, A-2, G-2, Block A, Dilshad Garden, Delhi, 110095",28.6749675,77.3079583
"Dr..sinduja tiwari, 18-A, Pocket H, Dilshad Garden, Delhi, 110095",28.6629442,77.2657908
"Dr..jahnvi, gupta nursing home, 25, Raj Block, Navin Shahdara, West Rohtash Nagar, Delhi, 110032",28.6760844,77.2853053
"Dr..riNa khanelwal, khandelwal hospital, B-16, Main Road, East KrishNa Nagar, East KrishNa Nagar, New Delhi, Delhi 110051",28.6594081,77.2857999
"Dr..dipti Nabh, Jain Mandir, 20, Old ANarkali, Near, Radheypuri, KrishNa Nagar, New Delhi, Delhi 110051",28.6556933,77.2854207
"Dr..neelam prasad, B-26 & 27, Block H, Guru NaNak Pura, Laxmi Nagar, Delhi, 110092",28.6063273,77.2134701
"Dr..aditi acharya, preetvihar",28.633285,77.2784581
"Dr..leeNa , wellness clinic, 286-B, Peer wali Galli, near Aster Public School, Patparganj, Delhi, 110091",28.6096182,77.2893662
"Dr..pooNam sehgal, manglam medical centre, E-131, Dilshad Garden, Delhi - 110095, Opposite to LIC Colony ",28.6793772,77.3192249
"Dr..leela rajan, 56A, Main Road, Mayur Vihar Phase 1, Delhi - 110091, Opposite Jivan Anmol Hospital",28.6071671,77.2948966
"Dr..savita jain,sanjeevini diagNastic and medical centre, 399-B, Pocket 2, Mayur Vihar, Mayur vihar, Delhi 110091",28.6082679,77.3009242
"Dr..rachita virmani, virmani hospital, Mayur Vihar Phase II, Mayur Vihar, Delhi, 110091",28.6196057,77.2987369
"C/O Noble Clinic, C- 39, East Krishna Nagar, Krishna Nagar, Delhi - 110051",28.6546645,77.2813512
"Dr. tata gabriyal, H-190A, Pocket H, Dilshad Garden, Delhi, 110095",28.68091,77.3162417
"Dr..ashu agarwal, KrishNa Marg Road, 400, Gali Number 1, Block D, Ganesh Nagar II, Shakarpur, New Delhi, Delhi 110092",28.628666,77.2809226
"Dr..sobha chadda, chadda clinic, Flat 112, Dhruv Apartment, Laxmi Nagar, Laxmi Nagar, behind Mother Dairy, New Delhi, Delhi 110092",28.6210222,77.2905136
"Dr..abha sharma, ganesh chikitsalaya, 743, Mandawali Main Rd, Fazalpur, Block A, Mandawali, Delhi, 110092",28.6318102,77.2915037
"Dr..rekha kapoor, Pocket 2, Kotla, Mayur Vihar, New Delhi, Delhi 110091",28.6098207,77.3002931
"Dr. rekha gupta, 19A, R R Medical Centre Campus, Neelm Maata Road, Pocket B, Mayur Vihar Phase II, Mayur Vihar, New Delhi, Delhi 110091",28.6191251,77.2982306
"Dr. abhilasha , Pocket B, A-125, Mayur Vihar Phase II, Delhi, 110091",28.6201817,77.300655
"Dr. nidhi agarwal, mahesh hospital, metro station, D-437, Patparganj Societies Complex, West ViNad Nagar InDr.aprastha Extension, Block D, Mandawali, New Delhi, Delhi 110092",28.6263078,77.3001958
"Dr. amiNa hussain, Navin Shahdara, Shahdara, Delhi, 110032",28.6770463,77.2818988
"Nestiva Hospital, 1402, Baba Fatehsingh Marg, Govindpuri",28.5444734,77.1512589
"Nestiva Hospital, 1402, Baba Fatehsingh Marg, Govindpuri",28.5444734,77.1512589
"Nestiva Hospital, 1402, Baba Fatehsingh Marg, Govindpuri",28.5444734,77.1512589
"Nestiva Hospital, 1402, Baba Fatehsingh Marg, Govindpuri",28.5444734,77.1512589
"bhagat chandra hospital, rz f1 mahavir enclave palam dabri marg",28.593264,77.0787012
"bhagat chandra hospital, rz f1 mahavir enclave palam dabri marg",28.593264,77.0787012
"bhagat chandra hospital, rz f1 mahavir enclave palam dabri marg",28.593264,77.0787012
"Sukhmani Hospital, Near 245P sector 38 Bakhtawar chowk gurgaon 122001",28.4341863,77.0456617
"Mother's Clinic & Ultrasound centre, Shop No. 13 Jarsa rd HVPNL colony sector 15 Gurgaon 122022",28.4558448,77.0350567
"Park Hospital, park Hospital Q block South City 2 SohNa Rd main Sector 47 Gurgaon HaryaNa 122001",28.4199848,77.0457479
"NaVJEEVAN HOSPITAL, Basai Road Shakti Nager Gurgoan HaryaNa 122006",28.4570489,77.011603
"VARDHMAN MEDICARE CENTRE, Vardhman Medicare Centre 239 sector 5 Shetla Mata mandir road Gurgaon HaryaNa 122001",28.4834187,77.0152622
"Pratiksha Hospital, Pratiksha Hospital Golf Course Ext Rd. Sushant Lok II Sector 56 Gurgoan HaryaNa 122011",28.4187004,77.0949006
"BIBHUTI Women's Clinic, Bibbhuti Women's Clinic  A 5   first Floor Palam Vyapar Kendra Palam Vihar Gurgaon HaryaNa 122017",28.5083446,77.0286961
"JANaNI CLINIC, JANaNI CLINIC C-103 First Floor Palam Vihar Vyapar Kendra Gurgoan HaryaNa 122017",28.5088541,77.0286397
"SWASTHYAM, 1699 Lower Ground Floor Ardee City Gate Number 2 Rd Sector 52 Gurgaon HaryaNa 122003",28.4414677,77.0799276
"NEELKANTH HOSPITAL,  NEELKANTH HOSPITAL NR 38 main Nathupur road DLF phase 3 Gurgaon 122002",28.4833409,77.1051519
"BIHAR clinic, Bihar Clinic U block dlf phase 3 gurgaon sector 24",28.4933938,77.0942773
"Women & Skin Care , Women & Skin Care Street No. 1  U block dlf phase 3 sector 18 Gurgaon 122010",28.4911666,77.0897767
"Dr. Nirmal KrishNan, 17/707 Heritage City Peripheri Rd. Heritage City Sector 25 Gurgaon 122002",28.4844016,77.0555042
"Sukhmani Hospital, Near 245P sector 38 Bakhtawar chowk gurgaon 122001",28.4341863,77.0456617
"C.K Birla Hospita, CK Birla Hospital Block J , Bayfield Garden sector 51 Gurgaon 122018",28.4228053,77.0602456
"Dayal Hospital, Shop No. 15  Jharsa rd  sector 15 Gurgaon 122022",28.4589998,77.0384633
"Nidan Hospital, 151/7 , 96 Jharsa road Kirti Nager part - 1  sector 15 Gurgaon, HariyaNa 122007",28.4545619,77.0364478
"NaryaNa Mother & Child Care Centre, NaryaNa Mother & Child Care Centre Housing Board Colony Jharsa road Patel Nager Gurgaon HaryaNa 122022",28.4580212,77.0334294
"Nagpal Clinic, Nagpal Hospital 728-729 Nagpal nursing home sector 14 gurgaon 122001",28.4725887,77.0457001
"NaGPAL NURSING HOME, H.No. 729-730 oppost shop no. 1 sector 14 Market Gurgoan 122001",28.4725887,77.0457001
"NaGPAL NURSING HOME, H.No. 729-730 oppost shop no. 1 sector 14 Market Gurgoan 122001",28.4725887,77.0457001
"NaGPAL NURSING HOME, H.No. 729-730 oppost shop no. 1 sector 14 Market Gurgoan 122001",28.4725887,77.0457001
"Jain Hospital, Jain Hospital Unit 2 853 sector 14 Main road Market Gurgaon HaryaNa 122001",28.4730959,77.0465122
"Appolo Hospital, SCO 1,2 & 3 sector 14 Gurgaon HaryaNa 122001",28.4785971,77.0447022
"SPARSH Fertility IVF & GyNae solution, SPARSH Fertility IVF & GyNae solution 1041 opp.sector 22 Rd Market Gurgaon HaryaNa 122001",28.5056683,77.064266
"TRIVENI OBSTETRICS, 620 6th floor Galleria Tower Galleria market Phase IV Gurgaon HaryaNa 122009",28.4674881,77.0788078
"Dr. Shipra Mishra, 103Time Tower Mehrauli Gurgaon Rd. sector 28 HaryaNa 122002",28.4455463,77.0238963
"Astha Medicare , Astha Medicare 233 first floor sector 5 Gurgaon HaryaNa 122001 ",28.4818574,77.0185868
"K.K. Health Care Centre, K.K. Health Care Centre 238 near Shitla Mata Mandir old dector 5  Gurgoan HaryaNa 122001",28.4832725,77.0152089
"VARDHMAN MEDICARE CENTRE, Vardhman Medicare Centre 239 sector 5 Shetla Mata mandir road Gurgaon HaryaNa 122001",28.4834187,77.0152622
"Aryan Hospital, Aryan Hospital 78 old Railway Rd Rattan Garden Shivpuri extention sector 7 Gurgaon HaryaNa 122001",28.4696561,77.0169272
"Aryan Hospital, Aryan Hospital 78 old Railway Rd Rattan Garden Shivpuri extention sector 7 Gurgaon HaryaNa 122001",28.4696561,77.0169272
"City Surgical & maternity centre, City Surgical & Maternity cente 325/11 old railway road sector 7 Gurgaon 122001",28.4696165,77.0167124
"Madan hospital, Madan Hospital 168 11 old railway Rd Shivpuri Civil lines  Gurgaon HaryaNa 122001",28.4781818,77.0104007
"Park Hospital, park Hospital Q block South City 2 SohNa Rd main Sector 47 Gurgaon HaryaNa 122001",28.4199848,77.0457479
"UMKAL HOSPITAL, UMKAL Hospital Sushant Lok -1 A- 520 Near IFFCO Metro Station Gurgaon HaryaNa 122022",28.4715216,77.0707318
"KALOSA COSMEITIC AND GYNaE CLINIC, D 25 Ground Floor near SRS value Bazaar South City 1 Gurgaon HaryaNa 122001",28.4575133,77.0647096
"MED ZONE Maternity & Surgical Centre, MED ZONE Maternit & SurgicalCentre Houseno. 2967 near Shiv Mandir Sector 46 Gurgaon HaryaNa 122001",28.4383355,77.0597196
"ARVY Hospital, Aarvy hospital 530/18 Civil lines opp Nehru Stadium Gurgaon HaryaNa 122001",28.435165,76.9653299
"Mayom Hospital, Mayom Hospital D Block Sounth City 1 Sector 41 Gurgaon HaryaNa 122001",28.4580894,77.0609936
"SAHARA HOSPITAL, 734, 25 Basai Road Shakti Nager Arjun Nager Sector 8  Gurgaon HaryaNa 122001",28.3497344,77.0669864
"THAKRAL HOSPITAL, 316 , 16 SohNa Alwar Road behind petrol Pump Shivaji Nager sector 11 Gurgaon HaryaNa 122001",28.4543121,77.0252023
"THAKRAL HOSPITAL, 316 , 16 SohNa Alwar Road behind petrol Pump Shivaji Nager sector 11 Gurgaon HaryaNa 122001",28.4543121,77.0252023
"THAKRAL HOSPITAL, 316 , 16 SohNa Alwar Road behind petrol Pump Shivaji Nager sector 11 Gurgaon HaryaNa 122001",28.4543121,77.0252023
"Aarvy HOSPITAL, Aarvy hospital 530/18 Civil lines opp Nehru Stadium Gurgaon 122001",28.435165,76.9653299
"Mahadev Hospital, 876, 2 Mata Rd Near Bus stand Rajiv Nager Sector 12 Gurgoan HaryaNa 122001",28.4149079,76.9542809
"Mamta Hospital, 895, A/2 Bus Stand Rd Ganga Vihar Block A sector 12 Gurgaon HaryaNa 122006",28.4696224,77.0311552
"NaRULA HOSPITAL, Narula Hospital sector 15 -II opp.rail vihar gurgaon HaryaNa 122001",28.4581091,77.0385167
"RAMA HOSPITAL, Rama Hospital 7, Khandsa Rd Model Town sector 11 Gurgaon HaryaNa 122001",28.3952035,76.8140529
"Mathur Maternity & child Care Centre, Mathur Maternity & child Care Centre1-A MCS Rd Near TikoNa Park Civil Lines Gurgaon HaryaNa 122001",28.4553637,77.0297015
"COLUMBIA ASIA HOSPITAL, COLUMBIA ASIA HOSPITAL Ansal Plaza Near Gol Chakkar Block F, PalamVihar Gurgaon HaryaNa  122017",28.4818489,77.038462
"PRIME IVF CENTRE, PRIME IVF CENTRE House No. 4636 BSP  sector 23  Near Columbia Asia Hospital  Gurgaon HaryaNa 122017",28.506417,77.0363705
"BHATNaGER HOSPITAL, 56/9, new railway Rd Subhash Nagar sector 12 Gurgaon HaryaNa 122001",28.4695693,77.0210498
"GEM HOSPITAL, GEM maternity and Surgical Centre ain Rd opp. Gali number 3 Madanpuri Gurgoan HaryaNa 122006",28.4608487,77.0156899
"LAL Superspeciality hospital, Main Madanpuri Rd Near Patoudi chowk Gurgaon HaryaNa 122001",28.4578016,77.0140904
"Fortis Hospital, Fortish Hospital sector 44 Opposite Huda city centre Gurgaon HaryaNa 122002",28.4572593,77.0701384
"Fortis Hospital, Fortish Hospital sector 44 Opposite Huda city centre Gurgaon HaryaNa 122002",28.4572593,77.0701384
"Fortis Hospital, Fortish Hospital sector 44 Opposite Huda city centre Gurgaon HaryaNa 122002",28.4572593,77.0701384
"Fortis Hospital, Fortish Hospital sector 44 Opposite Huda city centre Gurgaon HaryaNa 122002",28.4572593,77.0701384
"Paras Hospital,  Paras Hospital C -1 Sushant lok pahse 1 gurgaon HaryaNa 122002",28.450618,77.0848899
"Paras Hospital,  Paras Hospital C -1 Sushant lok pahse 1 Gurgaon HaryaNa 122002",28.450618,77.0848899
"Paras Hospital,  Paras Hospital C -1 Sushant lok pahse 1 Gurgaon HaryaNa 122002",28.450618,77.0848899
"Paras Hospital,  Paras Hospital C -1 Sushant lok pahse 1 gurgaon HaryaNa 122002",28.450618,77.0848899
"ANaND HOSPITAL, ANand hospital plot no. 29 sector 56 Gurgoan 122011",28.4258498,77.0891221
"KIRTI HOSPITAL, Plot no. 13 sec 56 in front of kendriya Vihar Gurgoan HaryaNa 122001",28.424963,77.0910698
"KIRTI HOSPITAL, Plot no. 13 sec 56 in front of kendriya Vihar Gurgoan HaryaNa 122001",28.424963,77.0910698
"FAMILY MEDICARE, Familiy medicare Devinidar Vihar Sector 56 Gurgaon HaryaNa 122011",28.4244644,77.0618746
"Pratiksha Hospital, Pratiksha Hospital Golf Course Ext Rd. Sushant Lok II Sector 56 Gurgoan HaryaNa 122011",28.4187004,77.0949006
"Pratiksha Hospital, Pratiksha Hospital Golf Course Ext Rd. Sushant Lok II Sector 56 Gurgoan HaryaNa 122011",28.4187004,77.0949006
"Milann , Milann the fertility centre Unit 301 cross point Mall DLF Phase IV Gurgaon HaryaNa 122002",28.4682693,77.0804823
"Dr. Buttan's women's Health Clinic, Dr. Buttans women's Health Clinic C-112 First Floor Palam Vyapar Kendra Ansal Palam Vihar Gurgoan HaryaNa 122017",28.5087415,77.0287652
"Gurgaon Nursing Home, Gurgaon nursingh Home Housing Board colony jharsa road Gurgaon HaryaNa 122001",28.4574935,77.0332747
"KRISHNa MEDICARE CENTRE, KrishNa Medicare Centre Plot No. 9 friends colony Jharsa Rd Sector 15 Gurgaon HaryaNa 122001",28.4549671,77.0333785
"Family Health Clinic, Family Health clinic Huda market Near caffe coffee day sector 15  Gurgoan HaryaNa 122003",28.458248,77.0410161
" CHIRAYU WOMEN'S CLINIC, Chrayu mother And Child Care  Palam Vihar Gurgaon C 53 and C 59 1st Floor Palam Vihar vyapar Kendra Gurgoan 1220017",28.5087415,77.0287652
"Newlife Hospital Multispeciality Hospital and Trauma, Newlife Hospital Multispeciality Hospital and Trauma Dharam Colony Palam Vihar Extension Gurgaon HaryaNa 122017",28.5033319,77.0306839
"Chiranjiv hospital, Chianjiv Hospital New Railway Rd Gurgaon HaryaNa 122001",28.4570269,77.0260766
"Dr. Manisha Arora, 153 BASEMENT c BLOCK c SohNa Rd south city II Sector 49 Gurgaon 122018",28.4151999,77.0455995
"SILVER LEAF FERTILITY AND IVF CLINIC, Silver Leaf Fertility and IVF Clinic C-II south City 2 sector 49 gurgoan HaryaNa 100218",28.4162035,77.0465632
"Chirayu GyNae and Heart Clinic, Second Opinion GyNae & Dental clinic shop no. 247 2nd floor Sapphire Mall InterNal Walkway Sector 49 Gurgaon HaryaNa 122018",28.4117971,77.0457801
"COLUMBIA ASIA HOSPITAL, COLUMBIA ASIA HOSPITAL Ansal Plaza Near Gol Chakkar Block F, PalamVihar Gurgaon HaryaNa 122017",28.4818489,77.038462
"Metro Hospital , H block ?Chauma Village sector  Palam Vihar 122017",28.5138413,77.0287851
"Getwell clinic , Getwell clinic C 13/12 Ground floor Ardee City Secotr 52 Block C near gate no. 3 Gurgaon 122003",28.4415507,77.0733518
"Wellstar Clinic and Dignostic , P.No. -167 Near Devindar Vihar sector 56 Gurgaon 122011",28.4279171,77.0921981
"SEET MULITISPECIALITY CLINIC, Femheal Women's Clinic Sector 56 Gurgaon HaryaNa 1220011",28.4269229,77.0919358
"KHARBANDA HOSPITAL, Kharbanda Hospital New railway Rd Jawahar Nager Sector 12 Gurgoan HaryaNa 122001",28.4669785,77.0244775
"Sparsh …The healing touch,  Sparsh…The Helaing touch Bhim Nager chowk opp. DroNacharya Mandir Near New Railway Rd. Gurgoan HaryaNa 122006",28.463867,77.010563
"Bishnoi GyNae Centre, Bishnoi GyNae Centre  1421, Near X Seed Pre school Huda colony sector 46 Gurgoan HaryaNa 122003",28.4296501,77.0544924
"Disha Clinic/meddo, Disha Clinic A-4/5 DLF PHASE 1 sector 26 gugaon HaryaNa122002",28.4788901,77.1002458
"Varitaas Healthcare, Varitaas Healthcare A- 27/2 DLF phase 1 Gurgaon 122002",28.4695756,77.084409
"Bansal Meicare and Maternity Centre, C2, Sector 15 part I Behind Huda shopping Complex Opp. Vita Milk Booth Gurgaon HaryaNa ",28.4381662,77.05184
"Nestling GyNaecology and Fertility Centre , Nestling GyNaecology and Fertility Centre  A 1/230 opp.  Metro Pillar 237  Sector 55 Gurgaon HaryaNa 122011",28.4270127,77.1031139
"Swastik Maternity & Medical Centre, Swastik Maternity & Medical Centre 78-H vijay park Gurgaon HaryaNa 122001",28.4628316,77.0164597
"Swastik Maternity & Medical Centre, Swastik Maternity & Medical Centre 78-H vijay park Gurgaon HaryaNa 122001",28.4628316,77.0164597
"KHARBANDA HOSPITAL, Kharbanda Hospital New railway Rd Jawahar Nager Sector 12 Gurgoan HaryaNa 122001",28.4669785,77.0244775
"EAST WEST MEDICAL CENTRE, 711 sector 14 Rd DLF colony sector 14 Gurgaon HaryaNa 122001",28.4719681,77.044902
"Ayush Clinic, Ayush Clinic, Basai Rd Near CaNara Bank",28.4577201,76.98236
"KATHURIA Hospital, Kathuria hospital 19/8 Khandsa Rd model town sector 11, Gurgaon HaryaNa 122001",28.453437,77.0174123
"KATHURIA Hospital, Kathuria hospital 19/8 Khandsa Rd model town sector 11, Gurgaon HaryaNa 122001",28.453437,77.0174123
"DARSHANa clinic, DarshaNa Clinic 22/21 Raj Nager Chowk Khandsa Rd Opp. Mata Mandir Gurgaon HaryaNa 122001",28.4483315,77.0130941
"ViNayak Hospital, ViNayak Hospital 4/11 Khandsa Rd Shivaji Nager, Sector 11 Gurgoan HaryaNa 122001",28.4544674,77.0190148
"ADHAR HOSPITAL, ADHAR hospital 32 khandsa rd heera Nagar sector 11 Gurgaon HaryaNa 122001",28.4363561,77.0018086
"Park Hospital, Park Hospital Q block South City 2 SohNa Rd main Sector 47 Gurgaon HaryaNa 122001",28.4199848,77.0457479
"abalone clinic, shop no.10 b block market sector 41 noida 201301",28.5689745,77.3550398
"evidence healthcare, sector 108 D108 Noida ",28.5287294,77.3724392
"mamta sahu clinic, A102 sector 52 noida 201301",28.5850392,77.3638074
"kailash hospital , sector 77 noida ",28.5355343,77.3360788
"apollo hospital, greater noida ",28.4503802,77.4999857
"ghai clinic, mahagun mywoods first floor gaur city 2 greater noida 201318",28.6203951,77.4248808
"vandaNa clinic, D64 block D sector 40 noida 201303",28.5649983,77.3542736
"kailash hospital , sector 27 noida ",28.5355343,77.3358026
"chitra setya clinic, c6 sector 20 noida",28.579984,77.3274586
"shrivastava clinic, M1 vyapar marg buddh vihar noida 201301",28.5962288,77.3330124
"kailash hospital , sector 27 noida ",28.5355343,77.3358026
"sharma care, c135 sector 19 noida 201301",28.5816776,77.3252995
"kailash hospital , sector 27 noida ",28.5355343,77.3358026
"women clinic, noida sector 20 C38 201301",28.5814424,77.3319253
"kaberi banerjee clinic, pposite Pillar 18 of, Noida Bypass Flyover, Noida,",28.5782131,77.3351096
"cloudnine hospital, sector 51,C9 hoshiarpur village 201301",28.5789569,77.3643611
"neeta gupta clinic, sector77 shop no101,1st floor 201301",28.5716396,77.3891554
"lalita clinic, noida sector 44",28.5699095,77.3290584
"sai poly clinic, new ashok Nagar 110096",28.5953755,77.3095442
"piplani clinic, noida sec11 near metro hospital",28.5960625,77.3340262
"cloudnine hospital, sector 51,C9 hoshiarpur village 201301",28.5789569,77.3643611
"cloudnine hospital, sector 51,C9 hoshiarpur village 201301",28.5789569,77.3643611
"cloudnine hospital, sector 51,C9 hoshiarpur village 201301",28.5789569,77.3643611
"cloudnine hospital, sector 51,C9 hoshiarpur village 201301",28.5789569,77.3643611
"vrinda clinic, noida sec22 A200 block 201301",28.5923132,77.339977
"cloudnine hospital, sector 51,C9 hoshiarpur village 201301",28.5789569,77.3643611
"women carr clinic, sector 61 near shoprix mall C4,201301",28.5976825,77.3630315
"deepta gupta clinic, noida sec 11 T5,201301",28.583811,77.2838007
"akansha gupta clinic, noida sec 11 T5,201301",28.5975992,77.3220114
"sjm ivf centre, noida sector 62 NH9 plot no2,201307",28.63399,77.3882928
"surbhi hospital, sector 35 golf marg 201301",28.5791589,77.358678
"surbhi hospital, sector 35 golf marg 201301",28.5791589,77.358678
"viNayak hospitalnoida , sector27 pocket e Atta market 201301",28.5711909,77.3256076
"prakash hospital, sector33 block D 201301",28.5874297,77.3505687
"maNas hospital, sector 34,A93 main road ghijor 201307",28.5864321,77.3589088
"suchi gupta clinic, gaur city noida 2ndfloor 201309",28.615096,77.4250971
"Dr.rakhi clinic, gaur city noida 2ndfloor 201309",28.6118636,77.4200578
"amytri maternity clinic, gaur city noida 2ndfloor 201309",28.6194315,77.4245927
"manvi wonen clinic, noida sec19,A759, 201301",28.5751596,77.3219311
"surbhi hospital, noida sec35 golf marg 201301",28.5791589,77.358678
"sjm centre, sector 62 NH9 plot no2 ,201307",28.63399,77.3882928
"sjm centre, sector 62 NH9 plot no2 ,201307",28.63399,77.3882928
"sharda hospital, knowledge park2 g.noida 201306",28.4725843,77.4798402
"sharda hospital, knowledge park2 g.noida 201306",28.4725843,77.4798402
"sharda hospital, knowledge park2 g.noida 201306",28.4725843,77.4798402
"sai dharmarth hospital, noida sec40 block A 201303",28.5631284,77.3479285
"sjm centre, noida sec62 NH9 plot no2 201307",28.6254463,77.3673111
"mother and child clinic, noida sec61 D2 block 201301",28.600351,77.369388
"kailash hospital , noida sec 27",28.5355343,77.3358026
"surbhi hospital, noida sec 35 golf marg morNa",28.5791589,77.358678
"apollo hospital, noida sec 26 201301",28.579466,77.3323734
"tripathi hospital, noida sec119,NH1A 201304",28.5930396,77.3643829
"motherland hospital, noida sec119 amrapali platinum",28.5869634,77.3981316
"prayag hospital, noida sec41,j206 201302",28.5636392,77.3629125
"nidan mother and childcare, noida sec 51 201307",28.5916983,77.3745461
"satya medical.centre, noida sec34,A98-A201307",28.5866533,77.3558452
"ansari poly clinic, dadri road salarpur noida",28.5422783,77.3844529
"satya medical.centre, noida sec34,A98-A201307",28.5866533,77.3558452
"tanvi clinic , noida sec102 khadar 201305",28.5416295,77.3850906
"arti tandon clinic, noida sec36,B block201301",28.5737865,77.3489914
"mamta jha clinic, greater noida alpha2 near gate no8,201306",28.47793,77.5197565
"maatritva, greater noida alpha2 near gate no8,201306",28.5303528,77.4072584
"baba medical centre, noida sec63A 201307",28.6251362,77.391595
"priyanka tyagi clinic, noida sec72E81 block E 201301",28.5819678,77.3790267
"sharda hospital, knowledge park2 g.noida 201306",28.4725843,77.4798402
"sharda hospital, knowledge park2 g.noida 201306",28.4725843,77.4798402
"amar medical centre, noida sec19,B183 201301",28.5783728,77.3217866
"maNas hospital, noida sec34,A93 block A 201307",28.5864321,77.3589088
"prakash hospital, noida sec33 block D 201301",28.5855917,77.3468639
"prakash hospital, noida sec33 block D 201301",28.5855917,77.3468639
 Shailaja Clinic BTM ,12.9136135,77.6013386
 Motherhood Banashankari  ,12.9269371,77.5585111
 Vasavi Hospital  Kumaraswamy layout ,12.9031342,77.5578467
 Sama Wellness Clinic ,12.9170077,77.5923236
 Rahat womens clinic ,45.5519618,-121.1752462
 Apollo Cradle Jayanagar ,12.9167382,77.5826835
 Deepthi Nurshing Home ,17.7349428,83.2755862
 Divine women and child speciality clinic ,12.9291671,77.5460399
 Ortho Med Centre ,12.9230948,77.5884613
 Philomena Hospital ,45.6127424,-121.1751185
 Nirmala Clinic ,45.5519617,-121.1752462
 Cloudnine Bellandur ,12.9243044,77.669775
 Cloudnine Bellandur ,12.9243044,77.669775
 Janani Clinic  HSR ,12.9363217,77.5570713
 Rainbow Bannerghatta ,12.9033212,77.598115
 Mom and Me  Koramangala ,12.9356916,77.6282462
 Vidya Desai clinic indiranagar ,12.9656471,77.6369288
 Cloudnine Fertility Jayanagar ,12.9347139,77.5816868
 Poornima Clinic Bomanahalli ,12.8926905,77.6163351
 Motherhood Indiranagar ,12.978472,77.6350498
 Janani Clinic  JP Nagar ,12.9058626,77.5774409
 Apollo Cradle Jayanagar ,12.9167382,77.5826835
 Manipal Hospital ,20.3925125,75.7981165
 Birth and Beyond Clinic ,45.5519617,-121.1752462
 Agarwal Healthcare ,45.5519617,-121.1752462
 Padmakshi Clinic ,18.0043614,79.5675807
 St john Hospital ,45.5519617,-121.1752462
 Varalakshmi Hospital ,13.8375591,77.3918322
 Motherhood Sarjapur ,12.9178603,77.6697143
 Motherhood Indiranagar ,12.978472,77.6350498
 Manipal Hospital ,20.3925125,75.7981165
 Lotus Diagnostic Center ,45.5519617,-121.1752462
 Motherhood Sarjapur ,12.9178603,77.6697143
 Womens care clinic ,45.5519617,-121.1752462
 First Care Clinic ,45.5519617,-121.1752462
 Trinity Healthcare clinic ,45.3517564,-121.9831338
 Bhagwan Mahaveer jain Hospital ,12.991625,77.59246
 Cloudnine Old Airport Road ,12.9594548,77.6541903
 Manipal Hospital ,20.3925125,75.7981165
 Cloudnine Bellandur ,12.9243044,77.669775
 Pristyn Care Indiranagar ,12.991334,77.6215317
 Bhadravati ,13.8430363,75.6643146
 Lotus Diagnostic Center ,45.5519618,-121.1752462
 Manipal Hospital ,20.3925125,75.7981165
 clinic in koramangala 4th block ,12.934409,77.6146734
 Deepthi Nursing Home ,12.9436172,77.5948933
 Kubra Maternity nurshing Home   ,12.9269289,77.6012802
 yashwanthpur ,13.0270878,77.5354986
 Cloudnine Old Airport Road ,12.9594548,77.6541903
 OBG One ,45.5519617,-121.1752462
 Republic Hospital ,48.653054,-118.7339909
 Life Infertility Clinic Bhartinagar ,12.9911484,77.6101028
 Fortis  Bannerghata ,12.9271157,77.5357466
 Columbia Asia Sarjapur ,12.9197514,77.6627232
 kolar ,45.5519618,-121.1752462
 Sowmyas women care clinic ,12.89342,77.6082257
 P R Desai hospital ,12.9864242,77.5765385
 Motherhood Sarjapur ,12.9178603,77.6697143
 Cloudnine Bellandur ,12.9243044,77.669775
 Womens care clinic Manipal county road ,12.9301335,77.5820549
Lotus Diagnostic Centre,22.4848035,112.8047842
St John Hospital,45.5519618,-121.1752462
St John Hospital,45.5519617,-121.1752462
St John Hospital,45.5519618,-121.1752462
St John Hospital,45.5519618,-121.1752462
St John Hospital,45.5519617,-121.1752462
CMH Hospital Indiranagar,12.9778862,77.643623
CMH Hospital Indiranagar,12.9778862,77.643623
CMH Hospital Indiranagar,12.9778862,77.643623
CMH Hospital Indiranagar,12.9778862,77.643623
CMH Hospital Indiranagar,12.9778862,77.643623
CMH Hospital Indiranagar,12.9778862,77.643623
Apoorva Diagnostic and  Healthcare Indiranagar,12.9761087,77.6389673
Srujana Hospital Electronic City,12.841437,77.6449641
Srujana Hospital Electronic City,12.841437,77.6449641
Blossom Multispeciality Hospital Electronic City,12.8703786,77.6569092
Sri Krishna Sevashrama Hospital Jayanagar,12.9173442,77.5825339
Mother and child care Koramangala,12.9368878,77.6124665
Shraddha Nurshing Home Koramangala,12.9436494,77.615353
Own Clinic Jayanagar 4th Block,12.9269282,77.5786048
Ring Road Hospital Banashankari,12.9191775,77.5480065
Vijayashree hospital Bannerghata,12.8183984,77.5756052
Sagar Hospital Kumaraswamy layout,12.9081233,77.5624097
Manasi Clinic Bannerghata,12.9140422,77.607752
Aster RV Hospital,12.9108429,77.5825535
GM Healthcare,12.9731841,77.6234133
Cloudnine Bellandur,12.9243044,77.669775
Columbia Asia Sarjapur ,12.9197514,77.6627232
Cloudnine old Airport road,12.9594548,77.6541903
Republic Hospital,48.653054,-118.7339909
Narayana Health Sarjapur road,12.9104536,77.6836462
Sanjeevi Diagnostics,12.9255745,77.5866506
Aksha Hospital,15.1719293,75.300329
Aksha Hospital,15.1719293,75.300329
Swasthya Women Care Clinic,12.919654,77.6429784
Manipal Hospital,20.3925125,75.7981165
Manipal Hospital,20.3925125,75.7981165
Manipal Hospital,20.3925125,75.7981165
Manipal Hospital,20.3925125,75.7981165
Apollo Cradle Koramangala,12.9368055,77.6180023
Apollo Cradle Koramangala,12.9368055,77.6180023
Cloudnine Bellandur,12.9243044,77.669775
Karthik Clinic and Karthik Scan,12.8872815,77.5897613
Sparsh Hospital Infantry road,12.9833923,77.5920161
Sparsh Hospital Infantry road,12.9833923,77.5920161
Bhagwan Mahaveer Jain Hospital,12.991625,77.59246
Cloudnine Jayanagar,12.9340055,77.5815967
Cloudnine Jayanagar,12.9340055,77.5815967
Cloudnine Jayanagar,12.9340055,77.5815967
Cloudnine Jayanagar,12.9340055,77.5815967
Raksha Clinic Banashankari,12.9245928,77.5482915
Motherhood Banashankari,12.9269371,77.5585111
Mallya Hospital,12.9681208,77.5925759
Cloudnine Old Airport Road,12.9594548,77.6541903
Motherhood Indiranagar,12.978472,77.6350498
Sai Speciality Centre Kasturi Nagar,12.9995327,77.6601531
Medivision Ultrasound Scan and Diagnostics,12.9587078,77.6979924
Shiffa Hospital Queen Road,12.9896582,77.5965895
Care Clinic HSR Layout,12.9140105,77.6386829
Specialist Hospital HRBR Layout,13.0169906,77.6406736
Pristyn Care HRBR Layout,13.0165652,77.6354554
Motherhood indiranagar,12.978472,77.6350498
Amar Jyoti Nurshing Home,17.0455196,75.7322896
Apollo Clinic Koramangala,12.9339831,77.6137713
Command Hospital Cambridge Road,12.9646388,77.6254708
Command Hospital Cambridge Road,12.9646388,77.6254708
Shiva Nurshing Home Wilson Garden,12.9464906,77.5990353
Deepanjali Clinic Closed,12.9385149,77.6152651
Rishi Women Care Clinic Banashankari,12.9233951,77.5503799
Sanjeevani Clinic,27.5242528,82.406724
St John Hospital,45.5519617,-121.1752462
St John Hospital,45.5519617,-121.1752462
Spandana Womens Health clinic kanakapura,12.8826538,77.544065
Apollo Cradle Koramangala,12.9368055,77.6180023
Apollo Cradle Koramangala,12.9368055,77.6180023
Apollo Cradle Koramangala,12.9368055,77.6180023
philomena Hospital,45.6127425,-121.1751185
own house ,45.5519617,-121.1752462
Pushpa Healthcare,45.4998665,-122.6880108
Pushpa Healthcare,45.4998665,-122.6880108
Cloudnine Jayanagar,12.9340055,77.5815967
St John Hospital,45.5519617,-121.1752462
St John Hospital,45.5519617,-121.1752462
Sagar Hospital Jayanagar,12.9281467,77.5970283
St John Hospital,45.5519617,-121.1752462
Cloudnine Jayanagar,12.9340055,77.5815967
Pristyn Care Koramangala,12.9338545,77.6145296
Jayashree Multispeciality Hospital,12.8817446,77.62354
St John Hospital,45.5519617,-121.1752462
Karanth Speciality Hospital,12.9160033,77.6167585
Green view multispeciality hospital,12.9191291,77.6355482
Philomena Hospital,45.6127424,-121.1751184
philomena Hospital,45.6127424,-121.1751185
Fortis Lafemme Hospital,28.5288575,77.241131
Fortis Lafemme Hospital,28.5288575,77.241131
Fortis Lafemme Hospital,28.5288575,77.241131
Fortis Lafemme Hospital,28.5288575,77.241131
Columbia Asia Sarjapur ,12.9197514,77.6627232
Ayesha Speciality Clinic,12.9180143,77.6009253
Manipal Hospital,20.3925125,75.7981165
CMH Hospital Indiranagar,12.9778862,77.643623
"Life Plus Hospital, Thippasandra",12.9757946,77.644437
Manipal Hospital,20.3925125,75.7981165
Manipal Hospital,20.3925125,75.7981165
philomena Hospital,45.6127424,-121.1751185
philomena Hospital,45.6127425,-121.1751184
"Guwahati,",26.1430252,91.620482
"Jyotinagar,Jyotinagar,Jyotinagar",24.2653777,80.0996203
"east end nurshing home,bamunimaidan,guwahati,-",26.1838304,91.7823293
"hatigarh,opp.geeta nagar P S, Ambikagirinagar, guwahati,-",26.1716749,91.7798937
"east end nurshing home,bamunimaidan,guwahati,",26.1838304,91.7823293
"silpukhuri,-",26.1897382,91.7632469
"GMCH,Guwahati",26.1542109,91.7674965
"AryaHospital,Guwahati",26.1747699,91.7498514
"NamecareHospital,Namecarehospital,Namecarehospital",26.3927318,91.9522898
"Atagaon,Atagaon",19.5021738,73.3092505
"Atagaon,Atagaon,Atagaon",19.5021738,73.3092505
"Atagaon,Atagaon,Atagaon",19.5021738,73.3092505
"Atagaon,Atagon,Atagon",41.3780502,-2.0202459
"Ihr,Ihr,Ihr",45.5519617,-121.1752462
"Ihr,ihr,ihr",45.5519617,-121.1752462
"AkangshaHospital,Akangsa,Akangsa",23.1837099,75.9298113
"Ihr,ihr,ihr",45.5519617,-121.1752462
"MaligaonHospital,Maligaon,Maligaon",26.1565362,91.6976756
"Guwahati,-,-",26.1430252,91.620482
"ChristianHospital,ChirstianHospital,ChirstianHospital",42.5494658,-116.9311613
"Atagaon,Gmc,Atagaon,Gmc",45.5660353,-122.1499006
"Amingaon,NorthGuwahati,AmingaonCHC",26.200064,91.6731297
"Amingaon,NorthGuwahati,AmingaonCHC",26.200064,91.6731297
"DhirenparaFRU,Guwahati",26.1458362,91.724994
"DhirenparaFRU,Guwahati",26.1458362,91.724994
"GopinathNagarKalapahar,GOPINATHNAGARKALAPAHAR",26.150108,91.7365875
"KalicharanHospital,kalicharanHospital,kalicharanHospital",27.1876041,82.4352112
"NamecareHospital,NamecareHospital,NamecareHospital",26.3927318,91.9522898
"NamecareHospital,Namecare,Namecare",26.1640687,91.7663493
"ADABARI,ADABARI",26.1635604,91.6730881
"PANDU,PANDU",12.5510793,12.2199281
"PANDU,PANDU",12.5510793,12.2199281
"BIRUBARI,BIRUBARI,KALAPAHAR",26.1600189,91.7436583
"BHANGAGARH,BHANGAGARH,RAJGARH",26.1762736,91.7697612
"RUPNAGAR,BHANGAGARH",26.159614,91.7583899
"BORAGAON,BORAGAON,JALUKBARI",26.1113792,91.6767108
"BORA CERVICE,BORA CERVICE,ULUBARI",26.1695995,91.7604302
"BORA CERVICE,BORA CERVICE,ULUBARI",26.1695995,91.7604302
"BHANGAGARH,BHANGAGARH,RAJGARH",26.1762736,91.7697612
"BHANGAGARH,BHANGAGARH,RAJGARH",26.1762736,91.7697612
"SILPUKHURI,SILPUKHURI, NAVAGRAHA ",26.1892957,91.7640251
"MALIGAON,MALIGAON",26.1536593,91.6768498
"BIRUBARI,BIRUBARI,KALAPAHAR",26.1600189,91.7436583
"BORAGAON,BORAGAON,JALUKBARI",26.1113792,91.6767108
"RUPNAGAR,BHANGAGARH",26.159614,91.7583899
"Appolo Clinic At Road, Graham Bazar, Dibrugarh, Assam 786001",27.4890114,94.9147597
"HM Hospital, AMC Rd, opposite Jyotsna cinema hall, Jalan Nagar Colony, Paltan bazar, Dibrugarh, Assam 786005",27.492145,94.928057
"SHANI MANDIR ROAD,BELGAUM",15.8696565,74.5009801
"SHANI MANDIR ROAD,BELGAUM",15.8696565,74.5009801
"MARKET YARD,BELGAUM",15.887306,74.5009781
"DISTRICT HOSPITAL ROAD,BELGAUM",15.8690499,74.5098042
"NIPPANI ROAD,BELGAUM",15.0208439,73.6795615
"DARBAR GALLI,BELGAUM",15.8624327,74.5133097
"KOLLAPUR CIRCLE,BELGAUM",15.8757752,74.5123112
"NIPPANI ROAD,BELGAUM",15.0208439,73.6795615
"srinagar colony,srinagar colony",17.4326155,78.4367333
"Mothinagar,Mothinagar",28.6582341,77.1329674
"Yousufguda,Yousufguda",17.4359812,78.4229971
"Yousufguda,Yousufguda",17.4359812,78.4229971
"Maduranagar,Yousufguda",17.438479,78.4336566
"Motinagar,Motinagar",28.6454212,77.1309433
"Sr nagar,Sr nagar",17.446074,78.4388296
"Sri nagar colony,srinagar colony",17.4326155,78.4367333
"Yousuguda,Ganapathi complex",17.4341099,78.4290565
"Ameerpet,Ameerpet",17.4391859,78.4394705
"Sr nagar,Sr nagar",17.446074,78.4388296
"madura nagar,Yousufguda",17.438479,78.4336566
"Ameerpet,Ameerpet",17.4391859,78.4394705
"Ameerpet,Ameerpet",17.4391859,78.4394705
"Sr nagar,Sr nagar",17.446074,78.4388296
"Erragadda,Erragada",17.4551315,78.4240509
"Ameerpet,Ameerpet",17.4391859,78.4394705
"Ameerpet,Ameerpet",17.4391859,78.4394705
"kachiguda,Hyderabad ",17.3879979,78.4902426
"kachiguda,Hyderabad ",17.3879979,78.4902426
"Narayanaguda,Hyderabad ",17.3973494,78.4872827
"Narayanaguda,Hyderabad ",17.3973494,78.4872827
"Narayanaguda,Hyderabad ",17.3973494,78.4872827
"Nallakunta,Hyderabad ",17.4003345,78.4987306
"Nallakunta,Hyderabad ",17.4003345,78.4987306
"Nallakunta,Hyderabad ",17.4003345,78.4987306
"Nallakunta,Hyderabad ",17.4003345,78.4987306
"Himayat nagar,Hyderabad ",17.4051614,78.480919
"Himayat nagar,Hyderabad ",17.4051614,78.480919
"Himayat nagar,Hyderabad ",17.4051614,78.480919
"Gandhinagar,Hyderabad ",17.416216,78.4890604
"Hyderguda,Hyderabad ",17.3939131,78.4780647
"Ramnagar,Hyderabad ",17.4125106,78.5027547
"Ramnagar,Hyderabad ",17.4125106,78.5027547
"Saroor nagar,Hyderabad ",17.3556615,78.5156947
"Malakpet,Hyderabad ",17.3722659,78.4860546
"Malakpet,Hyderabad ",17.3722659,78.4860546
"LB Nagar,Hyderabad ",17.3589247,78.5294001
"Lb Nagar,Hyderabad ",17.3589247,78.5294001
"Rock town,Hyderabad ",17.3613159,78.558752
"Kothapet,Hyderabad ",17.3726372,78.5375668
"Chaitanyapuri,Hyderabad ",17.3780936,78.5336147
"PUSHPA HOTEL CENTRE,SURYARAOPETA",16.5097867,80.6348424
"PUSHPA HOTEL CENTRE,SURYARAOPETA",16.5097867,80.6348424
"DORNAKAL ROAD,SURYARAOPETA",16.5122627,80.6329332
"NAKKAL ROAD,SURYARAOPETA",16.5116816,80.6294883
"PUSHPA HOTEL CENTRE,SURYARAOPETA",16.5097867,80.6348424
"HANUMAN JUNCTION ROAD,MAIN ROAD",16.6462176,80.7335208
"HANUMAN JUNCTION ROAD,MAIN ROAD",16.6462176,80.7335208
"Gajuwaka,BC Road",17.6781838,83.2073714
"Seethemepeta,-",18.6916507,83.8109058
"Gajuwaka,-",17.6849415,83.1964913
"Gajuwaka,-",17.6849415,83.1964913
"Akkayyapalem,Lalitha Nagar",17.7333092,83.2992876
"Seethemepeta,-",18.6916507,83.8109058
"Vizag,-",17.7380347,83.0977815
"KGH opp,-",17.7094513,83.3028745
"KGH up road,-",17.7108685,83.3012362
"Aruluva,-",45.6127425,-121.1751185
"KGH opp,-",17.7094513,83.3028745
"KGH opp,-",17.7094513,83.3028745
"KGH opp,-",17.7094513,83.3028745
"KGH opp,-",17.7094513,83.3028745
"Vizag,Jagadamba",17.7111222,83.300078
Phandi road,20.4746948,85.8854391
Popular nurshing home,45.5519617,-121.1752462
Sai kripa nurshing home,24.5525655,81.3017708
Cda,47.7017971,-116.8333764
Deula sahi,20.476056,85.8484821
Popolar nurshing home,47.6866895,-116.7922071
Ranihat,20.4682076,85.8886102
Shanti hospital,20.0035998,68.7140867
Manglabagh,20.4711116,85.8839357
Phandi road,20.4746948,85.8854391
Biju patnaik chak,20.875984,83.3913003
Phandi road,20.4746948,85.8854391
Phandi road,20.4746948,85.8854391
"College Chowk, Nr.Devi Nursing Home",30.6731595,73.090054
Cda,47.6926736,-116.8114024
Phandi road,20.4746948,85.8854391
Buxi bazar,20.4780522,85.8667411
Buxi bazar,20.4780522,85.8667411
Ring road,47.6980276,-116.7921845
Kathagola,20.4759316,85.8831822
Ranihat,20.4682076,85.8886102
College sqr,47.6980276,-116.7921845
Omp sqr,20.4564705,85.8990709
Jobra,40.747781,-8.4887201
"Arati pharma, Ravitalkies",20.244874,85.8358287
"Ananya Nurshing home, Badagada",20.2590481,85.8481058
Sara nurshing home,47.6980276,-116.7921845
Lingipur,20.2180013,85.8361856
Bana puri hospital,19.8136491,85.8285407
"Khordha ,palla",20.1722219,85.6114873
"Badagada, sawata medical store",19.6443138,84.4066067
Blue wheel Hospital,20.3095963,85.8514304
Firestation Square,53.4834266,-2.2752338
"Globalnurshing home, Rajmahal",29.2306704,78.1919981
Ruchika Nurshing home. Bermunda,32.3361425,-64.8137822
Kaibalya hospital,19.261654,72.9701861
Banapur hospital,19.7756523,85.126506
Ravitalkies,20.2448259,85.8376772
"Minati medical store, Bermunda",32.2968045,-64.8298695
Bjb nagar,20.2518524,85.8394746
"Sai Medicals , BjB Nagar",20.2451304,85.8412991
Bahmikhal,21.9284548,75.6531303
Kuhudi,19.8761661,85.3421505
Balugaon,20.1785753,85.1079082
"Sara Nurshing home, BJB Nagar",20.2540895,85.8432403
Sparsh hospital,20.6687311,74.1862632
Labanya medicine store,23.0990518,86.1139038
"Sun Flower Nurshing home, Satyanagar",20.2611265,85.8400766
Swarnadi Drug house,43.9929209,-102.2440988
"Shree Hospital, Ravi talkies",20.2483092,85.8388753
Tangi,45.5519618,-121.1752462
Ravitalkies Square,20.2446961,85.8361606
Tangi hospital,20.2420122,85.3683229
Banapur hospital,19.7756523,85.126506
"A.R.Maternity Clinic, CRP Square",20.2843107,85.8066023
Uttara,23.8766482,90.3576884
"Stree clinic, Ashok nagar",20.264587,85.8377421
Swarnadi Drug house,43.9929209,-102.2440988
Rajmahal square,20.261687,85.8340936
"Athana IVF Centre, IRC Village,",20.3061006,85.8143192
"Deepak Nurshing home, Saheed nagar",20.292353,85.8421645
"Sangita maternity care & Hospital, unit 6 , Airport traffic square.",45.5519617,-121.1752462
"Ganga nagar, unit 6, Bhubaneswar",20.2637504,85.8180697
"Satabdhi gyn clinic, Rajmahal",20.2828151,85.8309643
Tangible hospital,45.7036055,-121.332354
"Gayatri hospital, Nachuni",19.8265914,85.2751839
Maa Shakti Hospital,20.2585849,85.817921
"Health village hospital , IRC Village",20.2947667,85.814057
Maternity care hospital,45.5519617,-121.1752462
"Kar clinic, unit 4",20.2772092,85.8308099
"Genix infertility Care, kharvel nagar",20.2775766,85.8336376
Chandeswar,19.8973308,85.360583
"Auro Clinic, Bermunda",20.2752489,85.7905053
"Kar clinic, unit 4",20.2772092,85.8308099
"Athana IVF Centre, IRC Village",20.3061006,85.8143192
Gambharimunda,19.84687,85.2074375
"Balyashree , BJB Nagar",20.2559519,85.843966
Chanda pur Hospital,25.8229923,115.4870516
Maa Shakti Hospital,20.2585849,85.817921
"New care clinic, Rath road, bbsr",20.2802314,85.785912
Uttara,23.8766482,90.3576884
Vivekananda Hospital,19.881053,75.7842393
"INS chilika, Balugaon",19.7120384,85.17468
"Dumduma, Patrapada",20.2358952,85.7803723
"Yashoda Hospital IIIrd M, Nehru Nagar, Ghaziabad, Uttar Pradesh",28.6599537,77.4360824
"Yashoda Hospital IIIrd M, Nehru Nagar, Ghaziabad, Uttar Pradesh",28.6599537,77.4360824
"Ganesh Nursing Home II-C Nehru Nagar,III Ghaziyabad ",28.6623243,77.4366318
"Kancal ClinicA-10, Ashok Nagar Ghaziyabad",28.6782401,77.4258554
"Gunjan IVF WorldKhand-4, Indrapuram,Ghaziyabad",28.6397051,77.3757444
"Dr.Meenakshi Jindal ClinicBlock SJ,Shastri Nagar Ghaziyabad Utter Pradesh ",28.6657607,77.45402
Kailash Hospital Sector 27 Noida UP ,28.5774619,77.3291916
"Women and Wombs Care CliniqueVPO 20, Ground Floor, Shipra Krishna Vista Plaza, Dr Sushila Naiyar Marg, Ahinsa Khand 1, Indirapuram, Ghaziabad, Uttar Pradesh , Landmark: Near Indirapuram Habitat Centre & Opposite Indirapuram Post Office, Ghaziabad",28.6396531,77.3705115
Dr.Neha ClinicCabin No.222 B-22 Noida ,28.5542589,77.3374248
"Apollo Cardil Apr 26, 2023 · Dr. Latika Singh Sinsinwar practices at Apollo Cradle Hospital, Delhi-NCR-Greater Noida.",28.4973844,77.3079112
Raghavendra HospitalPlot Number 243 Shakti Khand- III Ghaziabad,28.6482442,77.3621508
"Fortis Hospital Sector-62,B-22,Gautam Buddh Nagar Pin-201309",28.6187084,77.3700086
"Dr.Punita Gupta ClinicShopping Complex, Sarojini Naidu Marg, Ahinsa Khand 1, Indirapuram,",28.6396531,77.3705115
"Ayush Clinic143, Sector 2C, Landmark: opposite to SG impression society, Vashundhra Ghaziabad",28.6702312,77.374374
"Narendra Mohan Hospital Loni Indristal Area ,Mohan Nagar Shahibabad,Ghaziyabad-201008",28.6794046,77.382352
"Narendra Mohan Hospital Loni Indristal Area ,Mohan Nagar Shahibabad,Ghaziyabad-201009",28.6794046,77.382352
"Dr Kusum Gupta ClinicDr. Zakir Hussen Marg, Sector 2, Rajendra Nagar, Noida, ",28.622626,77.2416093
"Narendra Mohan Hospital Loni Indristal Area ,Mohan Nagar Shahibabad,Ghaziyabad-201011",28.6794046,77.382352
"Narendra Mohan Hospital Loni Indristal Area ,Mohan Nagar Shahibabad,Ghaziyabad-201012",28.6794046,77.382352
"Dr.Manisha Gupta ClinicR-14/22, Raj Nagar Ghaziyabad UP",28.6779616,77.4447211
"Santosh Hospital 1-Ambedkar RD,Opp- Old Bus Stand, Maliwara ,Nehru Nagar Ghaziyabad 201002",28.669754,77.4296104
"Santosh Hospital 1-Ambedkar RD,Opp- Old Bus Stand, Maliwara ,Nehru Nagar Ghaziyabad 201003",28.669754,77.4296104
"Mediwin Hospital 12/73, Block 12, Raj Nagarn Extensation Ghaziyabad ",28.680619,77.4493853
"Dr.Alpna ClinicShop Number- 19, G T Road, Ghaziabad - 201001, Hari Nivas Market (Map).",28.6554238,77.3933104
"Santosh Hospital 1-Ambedkar RD,Opp- Old Bus Stand, Maliwara ,Nehru Nagar Ghaziyabad 201007",28.669754,77.4296104
"Women Wellness ClinicS-2 Ground Floor,Quantum Residency Raj Nagar Extn. Ghaziyabad pin-201017",28.7008562,77.4237066
"Vrinda Clinic12 Central Market, West Punjabi Bagh, New Delhi - 110026, Delhi",28.670778,77.1304045
"CK Birla Hospital57/41, Punjabi Bagh (West), Landmark: Opp Punjabi Bagh Club, Delhi",28.6675026,77.1292892
"Param Tej Sehra Medical Centre29, N W A Club Road, Landmark: Near SBI Bank, Punjabi Baag  Delhi",28.6666097,77.1217968
"Maharaja Agrasen HospitalDwaraka Flyover, Pocket 4, Sector 1 Dwarka.",28.593565,77.0756569
"Agarwal Obs and Gynae ClinicA-2, Shop Number 5, DDA Market, Landmark: Near CA Apartments, Paschim Vihar Delhi",28.6725078,77.1005294
"Surgery & Gynaecare ClinicB-3/18, Paschim Vihar, New Delhi, Delhi",28.6679112,77.0967765
"Dr. A V S Gupta ClinicPD-16-A, Pitampura. Delhi 110034. Landmark: Near ND Market, Delhi",28.6988389,77.126053
"Progeny IVF - ICSI Centre29, North West Avenue, Club Road, West Punjabi Bagh., Landmark: Opposite SBI Bank, Delhi",28.6671166,77.1148643
"CK Birla Hospital57/41, Punjabi Bagh (West), Landmark: Opp Punjabi Bagh Club, Delhi",28.6675026,77.1292892
"Sehgal Nursing HomeA6, Second Floor, Panchwati, Opp. Azadpur Sabzi Mandi,, Landmark: Metro Pillar No-84, Adarsh Nagar, Delhi",28.7144729,77.1700891
"Healthy Human Clinics19, 1st Floor, Sandesh Vihar, Landmark: Near Kohat Enclave Metro station, Delhi",28.6923699,77.1383498
"Gyn ClinicC-15, Community Centre, Landmark: Near Gurudwara, Delhi",28.5799514,77.0791127
"The Surgery and Gynae Clinic1st Floor, B2 Block, DDA Market, Landmark: Near Jwalaheri Market, Paschim Vihar Delhi",28.6729534,77.1004743
"The ClinicD-11, Pushpanjali Enclave, Landmark: Gate Number 5 Pushpanjali Enclave, Delhi",28.6912406,77.1160059
"CK Birla Hospital57/41, Punjabi Bagh (West), Landmark: Opp Punjabi Bagh Club, Delhi",28.6675026,77.1292892
"Max Super Speciality Hospital108 A, Indraprasth Extension, Landmark: Opposite Sanchar Apartments, Delhi",28.6277268,77.1606102
"Dr. Madhu Gupta's Maternity & GynaeBG-2/3A & 6A, Baba Ramdev Marg, Landmark: Burger King, Paschim Vihar Delhi",28.6675943,77.1093289
"Cloudnine Hospital - Punjabi Bagh80/1, Northwest Avenue Road,next to Club Road, Apts, Punjabi Bagh, New Delhi, Delhi, Landmark: near Pal Mohan apartments, Delhi",28.6657706,77.1251444
"Cloudnine Hospital - Punjabi Bagh80/1, Northwest Avenue Road,next to Club Road, Apts, Punjabi Bagh, New Delhi, Delhi, Landmark: near Pal Mohan apartments, Delhi",28.6657706,77.1251444
"Panchsheel HospitalC-3/63-A, 64-A opp. Gokulpuri police station Wazirabad Road, Landmark: Yamuna Vihar (C-Block) Bus Stand, Delhi",28.701766,77.2772017
"Cloudnine HospitalKhasra Number 26/2/2, Keshopur, Outer Ring Road, Delhi",28.5465812,77.09359
"Dr. Noor Dharmarha ClinicPunjabi Bagh, House Number 18 Road number 70 Delhi",28.668455,77.1214026
"Navjeevan HospitalA-12, Outer Ring Road, Pushpanjali Enclave, Landmark: Opposite Jaipur Golden Red Light., Delhi",28.6948573,77.1062164
"Park HospitalNumber 12, Meera Enclave, Bus Depot,Outer Ring Road,Vishnu Garden,New Delhi, Landmark: Near Keshopur, Sabji Mandi, Delhi",28.651782,77.0905911
"Aksh Clinic175, Avtar Enclave, Landmark: opposite dominos pizza, Paschim Vihar Delhi",28.672593,77.0965255
"Gynae Bliss ClinicB 17, New Multan Nagar, Rohtak Road (5 min From Paschim Vihar West Metro Station), Landmark: Opposite Pillar Number 227, Delhi",28.6680137,77.0881139
"57/41, Punjabi Bagh (West), Landmark: Opp Punjabi Bagh Club, Delhi57/41, Punjabi Bagh (West), Landmark: Opp Punjabi Bagh Club, Delhi",28.6670957,77.1271242
"Yukti IVF & GynaecologyJ-1/164, C-1, Block, Landmark: Opposite Metro Pillar Number 404, Rajori Garden Delhi",45.6127424,-121.1751185
"Raheja ClinicSingle Storey, C-25-A, Block C, Vijay Nagar, New Delhi, Delhi, 110009",28.6920636,77.1990686
"Nova IVF FertilityGN-14, Shivaji Enclave, Sector-G, Mehta Chowk, Delhi",28.5844653,77.1245568
"Dr,Rashmi ClinicPunjabi Bagh, Delhi",28.6497364,77.1049369
"0/1, Northwest Avenue Road,next to Club Road, Apts, Punjabi Bagh, New Delhi, Delhi, Landmark: near Pal Mohan apartments, Delhi",28.6657706,77.1251444
"Nova IVF FertilityGN-14, Shivaji Enclave, Sector-G, Mehta Chowk, Delhi",28.5844653,77.1245568
"Cloudnine Hospital - Punjabi Bagh80/1, Northwest Avenue Road,next to Club Road, Apts, Punjabi Bagh, New Delhi, Delhi, Landmark: near Pal Mohan apartments, Delhi",28.6657706,77.1251444
"Cloudnine Hospital - Punjabi Bagh80/1, Northwest Avenue Road,next to Club Road, Apts, Punjabi Bagh, New Delhi, Delhi, Landmark: near Pal Mohan apartments, Delhi",28.6657706,77.1251444
"Cloudnine Hospital - Punjabi Bagh80/1, Northwest Avenue Road,next to Club Road, Apts, Punjabi Bagh, New Delhi, Delhi, Landmark: near Pal Mohan apartments, Delhi",28.6657706,77.1251444
"Cloudnine Hospital - Punjabi Bagh80/1, Northwest Avenue Road,next to Club Road, Apts, Punjabi Bagh, New Delhi, Delhi, Landmark: near Pal Mohan apartments, Delhi",28.6657706,77.1251444
"Cloudnine Hospital - Punjabi Bagh80/1, Northwest Avenue Road,next to Club Road, Apts, Punjabi Bagh, New Delhi, Delhi, Landmark: near Pal Mohan apartments, Delhi",28.6657706,77.1251444
"CK Birla Hospital57/41, Punjabi Bagh (West), Landmark: Opp Punjabi Bagh Club, Delhi",28.6675026,77.1292892
"Dr. Noor Dharmarha ClinicHouse Number 18, Road Number 70,Punjabi Baag Delhi",28.668455,77.1214026
"Nova IVF FertilityGN-14, Shivaji Enclave, Sector-G, Mehta Chowk, Delhi",28.5844653,77.1245568
"Maatritva Gynae And Neuro ClinicHouse Number 227-A,DG2 GROUND FLOOR, Landmark: NEAR TYAGI CHOWK, Delhi",28.6008013,77.1125121
"Apollo Cradle & Children’s HospitalPlot Number 15-A, Shivaji Marg, Najafgarh Road., Landmark: Next to Haldiram, Delhi",28.6616303,77.1478542
"Apollo Cradle & Children’s HospitalPlot Number 15-A, Shivaji Marg, Najafgarh Road., Landmark: Next to Haldiram, Delhi",28.6616303,77.1478542
"Jaypur Golden Hospital Jaipur Golden Hospital. Address - 2, Institutional Area, Sector -III, Rohini, Delhi-110085",28.697727,77.106762
"Prime Uro Gynae Clinic64-65 , G 29, Near sector 3 bus stand, Rohini Sector-3, Landmark: Near Mother Divine public school, Delhi",28.706509,77.1005481
"The Heart Centre353, Pocket C-8, Bhagawan Mahavir Marg, Sector 8C, Landmark: Opposite Saroj Hospital, Madhuban Chowk (Left Turn From Pillar Number 380), Delhi",28.6408523,77.0958119
"Jaipur Golden Hospital RohiniBuilding Number-2, Institutional Area, Near Police Line, Rohini Sector 3-110085 (Institutional Area, Near Police Line)",28.697727,77.106762
"Sehgal Nursing HomeA6, Second Floor, Panchwati, Opp. Azadpur Sabzi Mandi,, Landmark: Metro Pillar No-84, Adarsh Nagar, Delhi",28.7144729,77.1700891
"Ortho & Gynae CentreA-2/38-39, Ground and First Floor , sector -8, , Landmark: Sector - 8 , Delhi",28.7042031,77.1257417
"Dr Karishma 's Gynae Care Clinic116, 1st Floor, Crescent Mall , Near Karim's Restaurant,above Mahalaxmi jewelers DC Chowk, Sector 9, Rohini, Landmark: Mahalakshmi Jewellers, Delhi",28.7187288,77.1224054
"Denovo Gynae Clinic Spine And Pain Management CenterD-12/135, 2nd floor,, Landmark: Rohini East Metro Station, Delhi",28.7079119,77.1222929
"Matritav Gynae And Infertility ClinicNumber B8/194, Landmark: Jaipur Golden Hospital Road, Delhi",28.6356398,77.1020216
"Nidhi Maternity & Gynae ClinicC-10 Ground Floor, Sector 14 Rohini, Delhi, Landmark: Near Balaji Mandir, Delhi",28.7118972,77.1294164
"Dr. Suneet Kaur ClinicFlat Number B-19 , Hil Apartments, Plot Number 17, Delhi",28.7089643,77.121788
"Surya ClinicC4/255, Pocket 4, Sector 6, Shiva Road., Landmark: Infront of Ambedkar Hospital Gate Number 3, Delhi",28.7079814,77.1130222
"Max Super Speciality HospitalC and D Block, Shalimar Place Site, Shalimar Bagh, Landmark: Near Haiderpur Badli Mor Metro Station, Yellow Line, Delhi",28.7279545,77.150372
"Max Super Speciality HospitalC and D Block, Shalimar Place Site, Shalimar Bagh, Landmark: Near Haiderpur Badli Mor Metro Station, Yellow Line, Delhi",28.7279545,77.150372
"SRG Speciality HospitalE-2/241, Landmark: Opposite Metro Pillar Number 170, Delhi",28.582988,77.1587231
"Jain Multispeciality HospitalAE 7 Shalimar Bagh, Landmark: AE Block, Poorbi Shalimar Bag, Delhi",28.7085446,77.1645067
"Neonest HospitalA-1/3 Prashant Vihar, DELHI, Delhi 110085",28.7108484,77.1341577
"Surabhi Clinichounse no-143, sec-2C, Vashundra, Ghaziabad, Uttar Pradesh 201012",28.6702251,77.374349
"Adiva HospitalC-1/C, Green Park Ext Rd, Block B, Green Park Extension, Green Park, New Delhi, Delhi",28.5583837,77.2038851
"Prime HospitalSD- 200, Near CBI Academy, Near Pal Sweets, Shastri Nagar, Ghaziabad-201002 (Near CBI Academy, Near Pal Sweets)",28.6758912,77.4642572
"Snehita Women's Health Clinicno CS22, Snehita Women's Health Clinic Shop, KW Srishti Rd, market, Raj Nagar Extension, Ghaziabad, Uttar Pradesh 201017 (also attached to Cloud Nine)",28.7052714,77.4255093
"Sapra Multispeciality HospitalSapra Hospital Rd, Sector 15A, Hisar, Haryana 125001",29.1366352,75.7123372
"53 Gurudham Calony, , Near Durga Kund, Gurudham Calony, Lane No-4, Gurudham, 221010 (Near Durga Kund)",25.2934121,82.9981025
"St. Joseph HospitalMeerut Rd, Marium Nagar, Sewa Nagar, Ghaziabad, Uttar Pradesh 201003",28.6824389,77.4109169
"Dr. Naini Tandon's ClinicC - 403, Tikonia Park Road, Landmark: Near Charan Guest Home, Nirala Nagar, Daliganj, Lucknow, Uttar Pradesh - 226020, India",26.8793716,80.9367656
"Ayushman MaternitySatya Complex, Opposite Dress Land, Chauraha, Gurudham-221010 (Opposite Dress Land)",25.3125744,82.9495007
"C - 34, Basant Lane, Railway Quarters, , Basant Lane Railway Colony-Paharganj-110055",28.6373471,77.2129712
"Sugandha Nursing Home475, Harjinder Nagar, Lal Bangla, kanpur 208007",26.4142395,80.3909641
"Suswasthyam4/700 Kalrav, Vijyant Khand, Gomti Nagar-226010",26.8699861,81.0221558
"Manipal HospitalOPD-4, Manipal Hospital, Hapur Rd, near NH-24, near Landcraft Golflink, G.Z.B, Navyug Market, Pandav Nagar, Ghaziabad, Uttar Pradesh 201002",28.6543058,77.4188944
"133/50, O Block, Marble Market, Kidwai Nagar, Kanpur, Uttar Pradesh 208011",26.4242412,80.3269544
"Abbas Bagh, Civil Lines, Kalyani, Unnao, Uttar Pradesh 209801",26.555787,80.4773497
"H No. 95, Sector - 15a, Gautam Budh Nagar, , Sector 15-201301",28.5636194,77.3164172
"D-394 Savitri Memoriyel, Shyam Nagar, Kanpur - 208013",26.416349,80.3506773
"Dwarka Hospital5/4, KP Kakkar Rd, near Chandralok Cinema, South Malaka, Prayagraj, Uttar Pradesh 211003",25.4373258,81.8424159
"Apollo HospitalsE-2, Block E, Sector 26, Noida, Uttar Pradesh 201301",28.579466,77.3323734
"AAKASH HOSPITAL(A UNIT OF DR. GABA ASSOCIATE)90/43, Malviya Nagar, New Delhi",28.5350398,77.2122484
"Dr. Akanksha Mishra' ClinicG-2, Krishna Kishori Apartment, K Block, Kidwai Nagar, Kanpur, Uttar Pradesh 208011",26.4207066,80.325243
"Maitri Multispeciality ClinicR k puram, 40 b, Malhaur Railway Station Road, Awadh Vihar Colony, Ashraf Vihar Colony, Chinhat, Lucknow, Uttar Pradesh 226028",26.1221694,81.3236279
"Raj Maternity & Surgical CentreA-10, Ashok Nagar, (Near Holy Child School), Ghaziabad. Ashok Nagar, Nehru Nagar III, Nehru Nagar, Ghaziabad, Uttar Pradesh, India201001",28.6617092,77.4411958
"Flt No. M-503, Sps Heights Ahinsa Khand-2 Near DPS, Indirapuram, Ghaziabad-201014",28.641832,77.3695825
"Kalawati Women Healthcare and Sports Injury Centre35/10, Lukarganj, Allahabad - 211016, Near Lukerganj Police Chowki, Prayagraj",25.4418688,81.8113663
"Phoenix Hospital49/163A, near Placid Hotel, Tagore Town, Prayagraj, Uttar Pradesh 211002",25.4560521,81.8592611
"Harris Ganj, Mirpur Cantonment, Mirpur, Kanpur, Uttar Pradesh 208004",26.4497187,80.3504628
"Genex Path Lab, A-1/2, Tedhi Pulia Ring Rd, near Royal Enfield Show Room, Sector F, Jankipuram, Lucknow, Uttar Pradesh 226021",26.9118739,80.9434857
"Advik Infertility ClinicBank Colony, Modi Nagar, Ghaziabad - 201204",28.8406678,77.5775557
"Prayagraj, Uttar Pradesh",25.4022408,81.7191836
"Woman Pulse Hospital & Research Centre112, Old Vijay Nagar, , Near, Shah Ganj-282010 (Near)",27.2040835,78.0131842
"Get Well HospitalS-19, Nehru Nagar Ghaziabad, Delhi - 201001 (Shalimar Garden Ext-I.near Dayanand Park)",28.6884183,77.3391491
"Meera Singhal Ladies Special HospitalHamilton Rd, George Town, Prayagraj, Uttar Pradesh 211002",25.4492599,81.8546441
"Healing Tree HospitalPlot No -30/1, Near One Square Mall, Shakti Khand 3-Indirapuram-201014 (Near One Square Mall)",28.6496699,77.3609171
"Saroj Super Speciality HospitalMadhuban Chowk, Rohini, Sector 14, New Delhi",28.7059462,77.1263468
"Medison hospitalTedhi Pulia Ring Rd, Near Goel Hero Motors, Near Tedhi pulia, Sector 13, Sector 14, Vikas Nagar, Lucknow, Uttar Pradesh 226022",26.9049489,80.9535954
"Cloudnine HospitalsPlot No: 6B, opp. to Park Inn, Fazalpur, I.P.Extension, Mandawali, New Delhi, Delhi 110092",28.6294602,77.3125673
"116/648, Dwivedi Nagar, Ganesh Nagar, Rawat Pur, Kanpur, Uttar Pradesh 208019",26.4804709,80.2693787
"PMC Hospital Pvt LtdB-1/3-12, , Bhelupur, Ravindrapuri Extension, Near ICICI ATM, Ravindrapuri Road, Durgakund-221004 (Near ICICI ATM)",25.2876826,82.9991679
"S-9, Second Floor, Aditya City Centre, above Kotak Mahindra Bank, Vaibhav Khand, Indirapuram, Ghaziabad, Uttar Pradesh 201014",28.6386374,77.3591158
"E-301, Inder Mohan Bhardwaj Marg, opposite M Block Market, Block E, Greater Kailash II, Greater Kailash, New Delhi, Delhi 110048",28.5371845,77.2390523
"Sector 15 Part 2, Sector 15, Gurugram, Gurgaon-122001",28.461171,77.0407461
"Shaleha Market, GMCH Road, Kamrup Metropolitan,, Bhangagarh, Guwahati, Kamrup-781005, Assam",26.195698,91.5811464
"Rainbow Children's HospitalFC-29, Plot No.5, Geetanjali, Near Malviya Nagar Metro Station Gate No.1 , New Delhi",28.5293365,77.2021133
"INSIDE PASRICHA HOSPITAL AND MATERNITY HOME SCO-1 and 2 NEAR BHUTESHWAR MANDIR,BASAI ROAD GURUGRAM, 122001, Haryana",28.4568442,77.0194619
HOD in IMS & SUM Hospital,20.2832271,85.7671763
"Dr,B.C.Bhunya Clinic, Kapila Prasad ,Bhimatangi Housing Colony, -751002",20.2341198,85.8163082
"Cura, Infront of Amber Showroom, Lingipur",20.2724494,85.7914535
Janani Hospital,17.3939313,78.5276308
"Dr,Veena Panda Clinic,IRC Village,Nayapalli",20.2913228,85.8023633
JeevanDhara Nursing Home,20.4556764,85.9100773
Nisamani Nursing Home,20.4660842,85.8830649
Life Institute of Gastro & Gyno,20.4557107,85.9154458
Asha Nirsing Home,45.5519617,-121.1752462
Apex Clinic,45.5519617,-121.1752462
"Chatter Nursing Home, 46, Ashok Puram, Opp. Gate No. 04, Ashok Nagar, Ranchi, Jharkhand ",23.3510641,85.3000681
"Freya IVF Center, Bariatu Rd, Bargain Village, Ranchi, Jharkhand ",23.4015024,85.3609586
"Harmu Housing Colony, Nizam Nagar, Hindpiri, Ranchi, Jharkhand ",23.3612546,85.308525
"Rameshwaram, Sarhul Nagar, Ranchi, Jharkhand ",23.3866798,85.3353364
"Between gate no 1 and 2, Hilltop motor, Bella Initiis, near Maruti Arena, Ashok Nagar, Ranchi, Jharkhand ",23.349506,85.3060341
Ranchi,23.3431832,85.2389252
"Choudhury Nursing Home, 189, Devi Mandap Rd, Vikash Nagar, Ranchi, Jharkhand ",23.38249,85.2968077
"Netaji Hospital,Jamsedpur",22.8019994,86.1349439
"HEALTH CITY HOSPITAL ,opp. Bodoland Guest House, Uday Nagar, Khanapara, Guwahati, Assam ",26.1172533,91.8127297
"AK Azad Rd, Sankarpur, Kala Pahar, Guwahati, Assam ",26.1687722,91.744008
"Nemcare Hospital, GS Rd, Bhangagarh, Guwahati, Assam ",26.1640687,91.7663493
"Barbari Hengrabari, Pratiksha Hospital, VIP Rd, Borbari, Guwahati, Assam ",26.1584955,91.8092975
"Apollo Excelcare Hospital, NH-37, Near Ganesh Mandir, Paschim Boragaon, Guwahati, Assam ",26.1277042,91.6786881
"FC4W+2FR, Jail Rd, Milanpur, Assam ",26.4564445,91.4433661
"Suyog Hospital Lem, Bargain Rd, Bariyatu, Ranchi, Jharkhand ",23.4178611,85.36911
"Ovum Woman & Child Speciality Hospital, 29P & 32, National Highway 4, opposite to HDFC Bank, Bhattarahalli, Sannatammanahalli, Battarahalli, Bengaluru, Karnataka 560049, Landmark: Opposite to HDFC Bank, Bangalore",13.0415403,77.6586694
"KIMS Hospital, Door No. 1-8-31/1, Block 1, 2, 3, Opposite Sai Baba Temple, Krishna Nagar Colony, Main Road, Minister Road, Punjagutta-500082 (Opposite Sai Baba Temple, Krishna Nagar Colony)",17.4367992,78.480221
"EG hospital, Narengi",26.1803077,91.8291404
"GNRC, Six Mile, Guwahati, Assam ",26.1312246,91.8057183
"House No. 3, Dr Sarmah's Maternity & Gyne Clinic, Jayanagar Rd, Jaya Nagar, Six Mile, Guwahati, Assam ",26.1304677,91.8052953
"Hatigaon Main Rd, near Sewali Path, MEDICITY, Dispur, Hatigaon, Guwahati, Assam ",26.1363798,91.7833997
"Excelcare Apllo hospital, Boragaon",26.1264391,91.6790392
"Assam Trunk Rd, Maligaon, Guwahati, Assam ",26.1685867,91.7190134
"Bethany Hospital, Shillong, Nongrim Hills, Shillong, Meghalaya ",25.5662866,91.8986222
"Greenwood tea estate,Dibrugarh",27.5104266,95.0134913
"near Sewali Path, Medicity, Hatigaon, Guwahati, Assam ",26.1369421,91.7813721
"C-3, Plot No- 367, Saya Zenith, GH-11, near CISF Camp, Ahinsa Khand 2, Indirapuram, Ghaziabad, Uttar Pradesh ",28.6382896,77.3760837
"C-374, Chetna Marg, Block C, Defence Colony, New Delhi, Delhi 110024",28.5680823,77.2293984
Jamia Hamdard Medical College,28.5141875,77.2474876
"BN 56, near Jhulelal Mandir Marg, Block BN, Poorbi Shalimar Bag, East, New Delhi",28.7079151,77.1599799
"BN 56, near Jhulelal Mandir Marg, Block BN, Poorbi Shalimar Bag, East, New Delhi",28.7079151,77.1599799
"Max Super Speciality Hospital 2 Cancer Hospital, Max Super Speciality Hospital, W-3,, Sector 1, Vaishali, Ghaziabad, near Radisson Blu Hotel, Vaishali, Vaishali, Ghaziabad, Uttar Pradesh ",28.6346279,77.3305709
"W-3, Ashok Marg, near Radisson Blu Hotel, Sector-1, Vaishali, Ghaziabad, Uttar Pradesh ",28.6345537,77.3305003
"Cloud Nine Hospital, Community Centre, Plot no – 6B, Mandawali Fazalpur, I.P.Extension, Patparganj, Delhi, ",28.6294602,77.3125673
"Yashoda Super Specialty Medicenter, 5 AGCR Enclave, Karkardooma, Anand Vihar, Delhi, ",28.6528642,77.2923808
Yashoda Super Speciality Medi Centre 5 AGCR enclave Karkardooma Delhi,28.6528642,77.2923808
"6th Floor, Nova IVF Fertility, Pantaloons Building, Six Mile, Guwahati, Assam ",26.1383667,91.797358
"House No. 3, Dr Sarmah's Maternity & Gyne Clinic, Jayanagar Rd, Jaya Nagar, Six Mile, Guwahati, Assam ",26.1304677,91.8052953
"AMC Rd, Jalan Nagar Colony, Paltan Bazar, Dibrugarh, Assam ",27.4904069,94.9225008
"F5C9+5R, Deodhai, Seodhai Kopowhuwa, Assam ",27.25112,94.8427272
"F5C9+5R, Deodhai, Seodhai Kopowhuwa, Assam ",27.25112,94.8427272
"APEKSHA HOSPITAL | Top Multi-Speciality Hospital in Dibrugarh, AMC Rd, Jalan Nagar Colony, Dibrugarh, Assam ",27.4918784,94.9303556
"FWPH+H54, Jyoti Nagar, Dibrugarh, Assam ",27.4863875,94.9253782
"Lifespring hospital, H No. 5-5-23, Kukatpally, Hyderabad, Telangana, India",17.4823837,78.4136977
"Lifespring hospital, 11-4-523, Near Gandhi Statue, Chilkalguda Bus stop, Chilkalguda, Secunderbad -500061 Telangana",17.4413063,78.4423747
